REPORTING YEAR,FACILITY NAME,GHGRP ID,REPORTED ADDRESS,LATITUDE,LONGITUDE,CITY NAME,COUNTY NAME,STATE,ZIP CODE,PARENT COMPANIES,GHG QUANTITY (METRIC TONS CO2e),SUBPARTS
2021,(540) Civitas Resources - Denver Basin,1000355,555 17th St. Suite 3700,39.74431,-104.98858,Denver,,CO,80202,CIVITAS RESOURCES INC (100%),361264,W
2021,121 REGIONAL DISPOSAL FACILITY,1004377,3820 SAM RAYBURN HIGHWAY,33.29857,-96.53586,MELISSA,COLLIN COUNTY,TX,75454,NORTH TEXAS MUNICIPAL WATER DISTRICT (100%),314494,HH
2021,15-18565/15-18662,1010040,1021 Tori Drive,37.274127,-83.239034,Hazard,PERRY COUNTY,KY,40701,CAMBRIAN COAL LLC (100%),112349,FF
2021,1500 South Tibbs LLC d/b/a Aurorium Indianapolis LLC,1001155,1500 South Tibbs Avenue,39.73,-86.26,Indianapolis,MARION COUNTY,IN,46242,VERTELLUS HOLDINGS LLC (100%),64820,C
2021,"1876 Resources, LLC - Denver Basin",1013369,"1290 Broadway, Ste 1650",39.736521979671,-104.986760022578,Denver,,CO,80203,CUB CREEK ENERGY LLC (100%),45789,W
2021,220 Gulf Coast Basin,1012507,"811 Louisiana, Suite 2100",29.75993,-95.366413,Houston,HARRIS COUNTY,TX,77002,TARGA RESOURCES CORP (100%),52328,W
2021,220 Gulf Coast Basin DEC,1009238,333 West Sheridan Ave,35.466697,-97.51453,Oklahoma City,,OK,73102,DEVON ENERGY CORP (100%),570971,W
2021,23rd and 3rd,1000112,730 3rd Avenue,40.663,-74,BROOKLYN,Kings,NY,11232,NEW YORK POWER AUTHORITY (100%),46082,"C,D"
2021,260 - East Texas Basin Gathering/Boosting,1012156,737 Eldridge Parkway,29.77455,-95.61949,Houston,HARRIS COUNTY,TX,77079,BP AMERICA INC (100%),4812,W
2021,260 East Texas Basin - BP America Production Company,1009170,501 Westlake Park Blvd.,29.78037,-95.6295,Houston,,TX,77079,BP AMERICA INC (100%),27909,W
2021,30-30 Gas Plant,1013701,2300 FM 1622,33.05188,-102.88792,Plains,YOAKUM COUNTY,TX,79355,STAKEHOLDER GAS SERVICES LLC (100%),26055,"C,UU,W"
2021,31st Street Landfill,1003742,11700 W 31ST ST,41.834962,-87.916392,WESTCHESTER,COOK COUNTY,IL,60154,CATHOLIC BISHOP OF CHICAGO (100%),7751,"C,HH"
2021,345 Arkoma Basin,1012472,"811 Louisiana, Suite 2100",29.75993,-95.366413,Houston,HARRIS COUNTY,TX,77002,TARGA RESOURCES CORP (100%),57576,W
2021,350 South Oklahoma Folded Belt,1012466,"811 Louisiana, Suite 2100",29.75993,-95.366413,Houston,HARRIS COUNTY,TX,77002,TARGA RESOURCES CORP (100%),134291,W
2021,360 Anadarko Basin,1012522,811 Louisiana Suite 2100,29.75993,-95.366413,Houston,HARRIS COUNTY,TX,77002,TARGA RESOURCES CORP (100%),309111,W
2021,360 Anadarko Basin,1009265,"4700 Gaillardia Parkway, Ste. 200",35.56719,-97.49827,Oklahoma City,,OK,73142,CHAPARRAL ENERGY INC (100%),138426,W
2021,360 Anadarko Basin DEC,1008287,333 West Sheridan Ave,35.466697,-97.51453,Oklahoma City,,OK,73102,DEVON ENERGY CORP (100%),211619,W
2021,360 Anadarko Camino Production,1013331,1200 17th Street Suite 2200,39.751641505472,-104.996642344698,Denver,,CO,80202,CAMINO NATURAL RESOURCES LLC (100%),91396,W
2021,375 Sedgwick Basin,1012523,"811 Louisiana, Suite 2100",29.75993,-95.366413,Houston,HARRIS COUNTY,TX,77002,TARGA RESOURCES CORP (100%),44717,W
2021,395 Williston Basin,1012526,"811 Louisiana, Suite 2100",29.75993,-95.366413,Houston,HARRIS COUNTY,TX,77002,TARGA RESOURCES CORP (100%),149687,W
2021,3M BROWNWOOD,1003188,4501 HIGHWAY 377 SOUTH,31.671177,-98.996513,BROWNWOOD,BROWN COUNTY,TX,76801,3M CO (100%),28243,"C,N"
2021,3M CO,1005043,,44.951,-92.9959,MAPLEWOOD,RAMSEY COUNTY,MN,55144,3M CO (100%),82788,C
2021,3M CO - GUIN,1003739,6675 US HIGHWAY 43,33.96548,-87.89936,GUIN,MARION COUNTY,AL,35563,3M CO (100%),31130,"C,N"
2021,3M CO - WAUSAU DOWNTOWN,1007698,144 ROSECRANS ST,44.95018,-89.63766,WAUSAU,MARATHON COUNTY,WI,54401,3M CO (100%),41220,C
2021,3M Chemical Operations' Cordova Facility,1006665,22614 ROUTE 84 NORTH,41.755,-90.284167,CORDOVA,ROCK ISLAND COUNTY,IL,61242,3M CO (100%),687526,"C,L,OO"
2021,3M Chemical Operations' Cottage Grove Facility,1004836,10746 Innovation Rd,44.789444,-92.908333,Cottage Grove,WASHINGTON COUNTY,MN,55016,3M CO (100%),63760,"C,L,N,OO"
2021,3M Chemical Operations' Decatur Facility,1004206,1400 STATE DOCKS RD.,34.641667,-87.038611,DECATUR,MORGAN COUNTY,AL,35609,3M CO (100%),45774,"C,L,OO"
2021,3M INDUSTRIAL MINERAL PRODUCTS DIVISION,1003408,3110 WALTERS DRIVE,34.70537,-92.24607,LITTLE ROCK,PULASKI COUNTY,AR,72206,3M CO (100%),32655,C
2021,3M MAGNETIC TAPE MANUFACTURING DIVISION,1004914,905-915 ADAMS STREET SOUTHEAST,44.879677,-94.359598,HUTCHINSON,MCLEOD COUNTY,MN,55350,3M CO (100%),36926,C
2021,3M NEVADA PLANT,1004804,2120 E. AUSTIN,37.834476,-94.330625,NEVADA,VERNON COUNTY,MO,64772,3M CO (100%),34007,C
2021,3M Pittsboro,1013282,4191 Hwy 87 South,35.660546,-79.176782,Moncure,,NC,27559,3M CO (100%),29339,C
2021,415 Strawn BKV  GB,1012545,4800 BLUE MOUND RD,32.78882,-97.34363,FORT WORTH,,TX,76106,EXXON MOBIL CORP (100%),467587,W
2021,415 Strawn Basin BKV - Production,1009276,4800 BLUE MOUND RD,35.4711808,-97.516602,FORT WORTH,,TX,76106,BKV OPERATING LLC (100%),134228,W
2021,420 Fort Worth Syncline,1012495,"811 Louisiana, Suite 2100",29.75993,-95.366413,Houston,HARRIS COUNTY,TX,77002,TARGA RESOURCES CORP (100%),123752,W
2021,420 Fort Worth Syncline BKV  GB,1012544,4800 Blue Mound Rd,32.78882,-97.34363,Fort Worth,,TX,76106,EXXON MOBIL CORP (100%),41750,W
2021,420 Fort Worth Syncline BKV - Production,1008289,1209 CR 1304,35.466697,-97.51453,Bridgeport,,TX,76426,BKV OPERATING LLC (100%),1118048,W
2021,425 Bend Arch,1012470,"811 Louisiana, Suite 2100",29.75993,-95.366413,Houston,HARRIS COUNTY,TX,77002,TARGA RESOURCES CORP (100%),36429,W
2021,430 Cotton Draw Midstream,1013815,333 West Sheridan Avenue,35.4671340183253,-97.5177769043572,Oklahoma City,,OK,73102,COTTON DRAW MIDSTREAM LLC (100%),113891,W
2021,430 Permian Basin,1012500,"811 Louisiana, Suite 2100",29.75993,-95.366413,Houston,HARRIS COUNTY,TX,77002,TARGA RESOURCES CORP (100%),2584706,W
2021,430 Permian Basin DEC,1008290,333 West Sheridan Ave,35.466697,-97.51453,Oklahoma City,OKLAHOMA COUNTY,OK,73102,DEVON ENERGY CORP (100%),470544,W
2021,430 Permian Basin GB DEC,1012353,333 West Sheridan Ave,35.4671340183253,-97.5177769043572,Oklahoma City,,OK,73102,DEVON ENERGY CORP (100%),63678,W
2021,48th Street Peaking Station,1001106,491 E 48TH ST,42.7553,-86.0853,HOLLAND,Allegan,MI,49423,CITY OF HOLLAND (100%),38255,"C,D"
2021,50 Buttes Gas Plant,1012037,3669 South Hwy 50,43.85274,-105.77781,Gillette,CAMPBELL COUNTY,WY,82716,MERITAGE MIDSTREAM SERVICES II LLC (100%),59459,"C,W"
2021,515 Powder River Basin,1012569,"1401 17th Street, Suite 900",39.7312095,-104.9826965,Denver,,CO,80202,WOLD ENERGY PARTNERS LLC (100%),14884,W
2021,515 Powder River Basin DEC,1009278,333 West Sheridan Ave,35.4711808,-97.516602,Oklahoma City,,OK,73102,DEVON ENERGY CORP (100%),200084,W
2021,580 - San Juan Basin Gathering/Boosting,1012154,1199 MAIN AVE SUITE 101,37.3329035142137,-107.877740395536,DURANGO,,CO,81301,BP AMERICA INC (100%),306405,W
2021,580 San Juan Basin - Simcoe LLC,1009076,1199 MAIN AVE SUITE 101,29.78037,-95.6295,DURANGO,,CO,81301,BP AMERICA INC (100%),1127421,W
2021,58TH ST LF (MAIN COUNTY LF),1004680,8831 NW 58TH ST,25.83301,-80.3465,MIAMI,MIAMI-DADE COUNTY,FL,33178,COUNTY OF MIAMI-DADE (100%),60335,HH
2021,59th Street,1000766,850 12TH AVE,40.7711,-73.9911,NEW YORK,New York,NY,10019,CONSOLIDATED EDISON INC (100%),180186,C
2021,74th Street,1000767,506 E 75TH ST,40.768,-73.9515,NEW YORK,New York,NY,10021,CONSOLIDATED EDISON INC (100%),195068,C
2021,A B Brown Generating Station,1001033,8511 WELBORN ROAD,37.9053,-87.715,MOUNT VERNON,Posey,IN,47620,CENTERPOINT ENERGY INC (100%),3077206,D
2021,"A.C.M.S., Inc.",1012058,835 CR 529,28.743151,-82.091653,Lake Panasoffkee,SUMTER COUNTY,FL,33538,WASTE CONNECTIONS US INC (100%),255049,HH
2021,A.J. Mihm Generating Station,1013527,816017 Sarya Road,46.793722,-88.616566,Pelkie,,MI,49958,WEC Energy Group Inc (100%),119056,C
2021,ABBOTT PARK FACILITY,1002983,100 ABBOTT PARK RD,42.30227,-87.89065,ABBOTT PARK,LAKE COUNTY,IL,60064,ABBOTT LABORATORIES (100%),56478,C
2021,ABBVIE LTD.,1007514,RD 2 KM 58.0,18.433237,-66.570509,BARCELONETA,BARCELONETA MUNICIPIO,PR,617,ABBVIE INC (100%),61958,C
2021,ABC COKE,1004511,ONE RAILROAD AVENUE,33.580769,-86.781281,TARRANT,JEFFERSON COUNTY,AL,35217,DRUMMOND CO INC (100%),175860,"C,Q"
2021,ABERDEEN ENERGY LLC,1005353,13435 370TH AVENUE,45.442417,-98.787139,MINA,EDMUNDS COUNTY,SD,57451,GLACIAL LAKES CORN PROCESSORS (100%),190888,C
2021,ABERDEEN PROVING GROUND-Aberdeen Area & Edgewood Area,1006971,4304 Susquehanna Ave,39.481881,-76.137166,APG,HARFORD COUNTY,MD,21005,US GOVERNMENT (%),98481,C
2021,ABSOLUTE ENERGY LLC,1002627,1372 STATELINE ROAD,43.49951,-92.91709,ST ANSGAR (MONA),MITCHELL COUNTY,IA,50472,ABSOLUTE ENERGY LLC (100%),147592,"C,II"
2021,AC 857 A,1002685,,26.29555555,-94.89777777,Offshore,,TX,0,SHELL PETROLEUM INC (100%),235653,"C,W"
2021,ACADIA PARISH POLICE JURY - ACADIA PARISH SANITARY LANDFILL,1006529,611 PETAL RD,30.256038,-92.532637,EGAN,ACADIA PARISH,LA,70531,ACADIA PARISH POLICE JURY (100%),45792,HH
2021,ACE ETHANOL LLC,1004761,815 WEST MAPLE STREET,44.9589,-90.9608,STANLEY,CHIPPEWA COUNTY,WI,54768,ACE ETHANOL LLC (100%),75319,"C,PP"
2021,ACME BRICK CO ELGIN PLANT,1005601,1776 OLD MCDADE RD,30.32903,-97.29207,ELGIN,BASTROP COUNTY,TX,78621,BERKSHIRE HATHAWAY INC (100%),24462,C
2021,ACME GYPSUM FACILITY,1005046,4164 HIGHWAY 285,34.323944,-99.818194,QUANAH,HARDEMAN COUNTY,TX,79252,KOCH INDUSTRIES INC (100%),37012,C
2021,ADA COGENERATION,1002731,7575 FULTON STREET EAST,42.929287,-85.431127,ADA,KENT COUNTY,MI,49355,ADA COGENERATION LP (100%),104600,C
2021,"ADA Carbon Solutions (Red River), LLC",1003752,201 Red River Mine Road,32.005405,-93.387829,Coushatta,RED RIVER PARISH,LA,71019,ADA CARBON SOLUTIONS LLC (100%),273325,C
2021,ADKINS ENERGY LLC,1003422,4350 WEST GALENA ROAD,42.3586,-89.80342,LENA,STEPHENSON COUNTY,IL,61048,ADKINS ENERGY LLC (100%),90388,C
2021,ADM - MANKATO,1002154,2019 3RD AVENUE,44.186805,-93.995493,MANKATO,BLUE EARTH COUNTY,MN,56001,ARCHER DANIELS MIDLAND CO (100%),128884,C
2021,ADM CORN PROCESSING,1006047,1350 WACONIA AVENUE SOUTHWEST,41.9192,-91.6862,CEDAR RAPIDS,LINN COUNTY,IA,52404,ARCHER DANIELS MIDLAND CO (100%),2754253,"C,II"
2021,ADM CORN PROCESSING,1006208,1251 BEAVER CHANNEL PARKWAY,41.8196,-90.2122,CLINTON,CLINTON COUNTY,IA,52732,ARCHER DANIELS MIDLAND CO (100%),2114571,"C,TT"
2021,ADM Deerfield,1010610,17700 South Highway T,37.80725,-94.585301,Deerfield,VERNON COUNTY,MO,64741,ARCHER DANIELS MIDLAND CO (100%),41564,C
2021,ADM Fostoria,1011855,608 FINDLAY ROAD,41.1494,-83.43295,Fostoria,HANCOCK COUNTY,OH,44830,ARCHER DANIELS MIDLAND CO (100%),27869,C
2021,ADM QUINCY,1000376,2100 GARDNER EXPRESSWAY,39.903884,-91.410552,QUINCY,ADAMS COUNTY,IL,62305,ARCHER DANIELS MIDLAND CO (100%),95858,C
2021,ADM SOUTHERN CELLULOSE PROD.IN,1006080,103 W 45TH ST,34.997921,-85.318581,CHATTANOOGA,HAMILTON COUNTY,TN,37410,ARCHER DANIELS MIDLAND CO (100%),30244,C
2021,ADM SOYBEAN PROCESSING - DES MOINES,1000034,1935 EAST EUCLID AVENUE,41.626329,-93.583205,DES MOINES,POLK COUNTY,IA,50313,ARCHER DANIELS MIDLAND CO (100%),147313,C
2021,ADM Southport,1014236,1730 E Moore Street SE,33.94516,-78.00117,Southport,BRUNSWICK COUNTY,NC,28461,ARCHER DANIELS MIDLAND CO (100%),65370,C
2021,ADM Valdosta,1011961,1841 Clay Road,30.8325,-83.248056,Valdosta,LOWNDES COUNTY,GA,31601,ARCHER DANIELS MIDLAND CO (100%),61374,C
2021,ADRIAN LANDFILL,1001991,1970 N OGDEN HWY,41.885177,-84.059029,ADRIAN,LENAWEE COUNTY,MI,49221,REPUBLIC SERVICES INC (100%),8228,HH
2021,ADS-CEDAR HILL LANDFILL,1001633,1319 NO BUSINESS CREEK ROAD,33.6845,-86.2525,RAGLAND,ST. CLAIR COUNTY,AL,35131,WASTE MANAGEMENT INC (100%),19703,HH
2021,ADS-PECAN ROW-EVERGREEN LANDFILLS,1001636,2995 WETHERINGTON LANE,30.81425,-83.35981,VALDOSTA,LOWNDES COUNTY,GA,31601,WASTE MANAGEMENT INC (100%),26481,HH
2021,ADS-STAR RIDGE LANDFILL,1006790,3301 ACMAR ROAD,33.607092,-86.507602,MOODY,ST. CLAIR COUNTY,AL,35004,WASTE MANAGEMENT INC (100%),36608,HH
2021,ADS/MCLEAN COUNTY LANDFILL,1002094,2105 W OAKLAND AVE,40.465534,-89.03273,BLOOMINGTON,MCLEAN COUNTY,IL,61704,REPUBLIC SERVICES INC (100%),3493,HH
2021,ADVANCED DISPOSAL CRANBERRY CREEK LANDFILL LLC,1001845,2510 ENGEL ROAD,44.4093,-89.854855,WISCONSIN RAPIDS,WOOD COUNTY,WI,54495,WASTE MANAGEMENT INC (100%),24192,"C,HH"
2021,"ADVANCED DISPOSAL MAPLE HILL LANDFILL, LLC",1003038,31226 INTREPID ROAD,39.73376,-92.53825,MACON,MACON COUNTY,MO,63552,WASTE MANAGEMENT INC (100%),30998,"C,HH"
2021,ADVANCED DISPOSAL OAK RIDGE LANDFILL,1006979,1741 SULPHUR SPRING ROAD,38.556639,-90.527306,BALWIN,ST. LOUIS COUNTY,MO,63021,WASTE MANAGEMENT INC (100%),11405,HH
2021,ADVANCED DISPOSAL ORCHARD HILLS LANDFILL INC,1001637,8290 HIGHWAY 251,42.14,-89.085,DAVIS JUNCTION,OGLE COUNTY,IL,61020,WASTE MANAGEMENT INC (100%),164238,"C,HH"
2021,ADVANCED DISPOSAL VALLEY VIEW LANDFILL INC,1006963,1363 BEAR RD,39.822266,-89.043754,DECATUR,MACON COUNTY,IL,62522,WASTE MANAGEMENT INC (100%),42380,"C,HH"
2021,ADVANSIX INC - CHESTERFIELD PLANT,1000627,4101 BERMUDA HUNDRED RD,37.336111,-77.2825,CHESTER,CHESTERFIELD COUNTY,VA,23836,ADVANSIX INC (100%),59229,C
2021,ADVANSIX INCORPORATED - HOPEWELL,1000630,905 EAST RANDOLPH ROAD,37.1815,-77.1621,HOPEWELL,HOPEWELL CITY,VA,23860,ADVANSIX INC (100%),1206918,"C,G,PP"
2021,AEP Corporate SF6 Emissions,1003708,1 Riverside Plaza,39.588493,-81.682523,Columbus,WASHINGTON COUNTY,OH,43215,AMERICAN ELECTRIC POWER CO INC (94.6%); ELECTRIC TRANSMISSION TEXAS LLC (4.88%),172514,DD
2021,AES - PUERTO RICO COGENERATION PLANT,1005310,"KM 142, RTE. #3 BO. JOBOS",17.945,-66.15027,GUAYAMA,GUAYAMA MUNICIPIO,PR,785,AES CORP (100%),3795966,C
2021,AES Alamitos,1001444,690 N STUDEBAKER ROAD,33.7688,-118.1009,LONG BEACH,Los Angeles,CA,90803,AES CORP (100%),1512394,"C,D"
2021,AES HAWAII INC,1005972,91-086 KAOMI LP,21.306111,-158.108056,KAPOLEI,HONOLULU COUNTY,HI,96707,AES CORP (100%),1068811,C
2021,AES Huntington Beach,1001447,21730 NEWLAND ST,33.6436,-117.9788,HUNTINGTON BEACH,Orange,CA,92646,AES CORP (100%),1501324,"C,D"
2021,AES Redondo Beach,1001450,1100 N HARBOR DRIVE,33.8504,-118.395,REDONDO BEACH,Los Angeles,CA,90277,AES CORP (100%),192627,D
2021,AES Warrior Run,1001223,11600 MEXICO FARMS RD SE,39.5944,-78.7456,CUMBERLAND,Allegany,MD,21502,AES CORP (100%),1411841,"C,D,PP"
2021,AFTON CHEMICAL CORP,1003853,501 MONSANTO AVE.,38.60055,-90.1729,SAUGET,ST. CLAIR COUNTY,IL,62201,NEWMARKET CORP (100%),51908,C
2021,AG Energy,1007551,21 Entrance Avenue,44.7258,-75.4417,Ogdensburg,ST. LAWRENCE COUNTY,NY,13669,AG ENERGY PARTNERS LP (100%),6779,"C,D"
2021,AG PROCESSING INC,1002069,4739 380TH ST,43.10102,-94.65419,EMMETSBURG,PALO ALTO COUNTY,IA,50536,AG PROCESSING INC A COOPERATIVE (100%),24670,C
2021,AG PROCESSING INC A COOP-MANNING,1002070,1000 300TH STREET,41.920794,-95.070791,MANNING,CARROLL COUNTY,IA,51455,AG PROCESSING INC A COOPERATIVE (100%),22417,C
2021,AG PROCESSING INC-EAGLE GROVE,1006054,500 NORTH COMMERCIAL AVENUE,42.669167,-93.904444,EAGLE GROVE,WRIGHT COUNTY,IA,50533,AG PROCESSING INC A COOPERATIVE (100%),74323,C
2021,AG PROCESSING INC-SHELDON,1002408,804 2ND AVE,43.182248,-95.856177,SHELDON,O'BRIEN COUNTY,IA,51201,AG PROCESSING INC A COOPERATIVE (100%),27003,C
2021,AG PROCESSING INCORPORATED A COOPERATIVE,1002291,800 DIAGONAL STREET,44.93265,-96.056491,DAWSON,LAC QUI PARLE COUNTY,MN,56232,AG PROCESSING INC A COOPERATIVE (100%),36929,C
2021,AGC FLAT GLASS N AMERICA INC,1007333,201 DUNCANNON LANE,37.70035,-84.26846,RICHMOND,MADISON COUNTY,KY,40475,AGC AMERICA INC (100%),88409,"C,N"
2021,AGP SOY/CORN PROCESSING,1002067,2801 E 7TH ST,40.58971,-98.33974,HASTINGS,ADAMS COUNTY,NE,68901,AG PROCESSING INC A COOPERATIVE (100%),186098,C
2021,AGRI ENERGY LLC,1005284,502 SOUTH WALNUT AVENUE,43.648333,-96.224444,LUVERNE,ROCK COUNTY,MN,56156,GEVO INC (100%),2212,"C,II"
2021,AGRIUM US BORGER NITROGEN OPERATIONS,1002380,9201 FM 1551,35.6411,-101.4203,BORGER,HUTCHINSON COUNTY,TX,79007,AGRIUM US INC (100%),730767,"C,G,PP"
2021,AGRIUM US INC - KFO,1004236,227515 E BOWLES ROAD,46.165957,-119.017218,KENNEWICK,BENTON COUNTY,WA,99337,AGRIUM US INC (100%),186638,"C,U,V"
2021,AHN Heartland Ingredients,1001919,1116 Highway 137,41.14375,-92.647694,EDDYVILLE,MONROE COUNTY,IA,52553,AJINOMOTO HEALTH & NUTRITION NORTH AMERICA INC (100%),113044,C
2021,"AIR LIQUID LARGE INDUSTRIES US, LP",1006430,324 W EL SEGUNDO BLVD,33.905833,-118.401944,EL SEGUNDO,LOS ANGELES COUNTY,CA,90245,AMERICAN AIR LIQUIDE HOLDINGS INC (100%),532254,P
2021,AIR LIQUIDE - CORPUS CHRISTI SMR,1003724,5880 UP RIVER ROAD,27.813911,-97.472347,CORPUS CHRISTI,NUECES COUNTY,TX,78407,AMERICAN AIR LIQUIDE HOLDINGS INC (100%),355697,P
2021,AIR LIQUIDE - FREEPORT HYCO PLANT,1003730,2398 VICTORIA ROAD,28.98037,-95.38396,FREEPORT,BRAZORIA COUNTY,TX,77541,AMERICAN AIR LIQUIDE HOLDINGS INC (100%),198256,"C,P"
2021,AIR LIQUIDE - PORT NECHES ASU COGENERATION PLANT,1003780,2121 PARK STREET,29.981116,-93.952389,PORT NECHES,JEFFERSON COUNTY,TX,77651,AMERICAN AIR LIQUIDE HOLDINGS INC (100%),3369,C
2021,AIR LIQUIDE AMERICA CORP,1003910,2292 Callahan Rd,32.4478,-94.6875,LONGVIEW,HARRISON COUNTY,TX,75602,AMERICAN AIR LIQUIDE HOLDINGS INC (100%),452437,P
2021,AIR LIQUIDE AMERICA CORP.,1006115,36597 HWY 30,30.21023,-90.99085,GEISMAR,ASCENSION PARISH,LA,70734,AMERICAN AIR LIQUIDE HOLDINGS INC (100%),332633,C
2021,AIR LIQUIDE GEISMAR UTILITY SERVICES,1003591,36183 HWY 30,30.216085,-91.002699,GEISMAR,ASCENSION PARISH,LA,70734,AMERICAN AIR LIQUIDE HOLDINGS INC (100%),214523,C
2021,AIR LIQUIDE LARGE INDUSTRIES US LP - RODEO HYDROGEN PLANT,1003748,1391 SAN PABLO AVE,38.047952,-122.256895,RODEO,CONTRA COSTA COUNTY,CA,94572,AMERICAN AIR LIQUIDE HOLDINGS INC (100%),815292,P
2021,AIR PRODUCTS & CHEMICAL INC - LAKE CHARLES FACILITY,1003013,102 TROUSDALE RD,30.237363,-93.285908,WESTLAKE,CALCASIEU PARISH,LA,70669,AIR PRODUCTS & CHEMICALS INC (100%),803093,P
2021,AIR PRODUCTS & CHEMICALS INC - Geismar SMR,1002698,8013 HWY 3251,30.18379,-90.98836,GEISMAR,ASCENSION PARISH,LA,70734,AIR PRODUCTS & CHEMICALS INC (100%),34010,"P,PP"
2021,AIR PRODUCTS & CHEMICALS INC - INDUSTRIAL GAS PRODUCTION FACILITY,1003009,14700 INTRACOASTAL DRIVE,30.022255,-89.900984,NEW ORLEANS,ORLEANS PARISH,LA,70129,AIR PRODUCTS & CHEMICALS INC (100%),71085,P
2021,AIR PRODUCTS & CHEMICALS INC MARTINEZ WATERFRONT ROAD,1002121,110 WATERFRONT RD,38.032767,-122.07594,MARTINEZ,CONTRA COSTA COUNTY,CA,94553,AIR PRODUCTS & CHEMICALS INC (100%),664568,P
2021,AIR PRODUCTS AND CHEMICALS INC - CATLETTSBURG HYDROGEN PLANT,1005809,11631 US Route 23,38.37673,-82.60581,CATLETTSBURG,BOYD COUNTY,KY,41129,AIR PRODUCTS & CHEMICALS INC (100%),125559,P
2021,AIR PRODUCTS AND CHEMICALS INC - GARYVILLE,1002727,4663 W AIRLINE HWY,30.09959,-90.648851,GARYVILLE,ST. JOHN THE BAPTIST PARISH,LA,70051,AIR PRODUCTS & CHEMICALS INC (100%),802345,P
2021,AIR PRODUCTS AND CHEMICALS INCORPORATED,1002123,5025 83RD STREET,38.529722,-121.398889,SACRAMENTO,SACRAMENTO COUNTY,CA,95826,AIR PRODUCTS & CHEMICALS INC (100%),47414,P
2021,AIR PRODUCTS BAYTOWN PLANT,1002430,5503 WEST BAKER ROAD,29.757778,-95.023056,BAYTOWN,HARRIS COUNTY,TX,77520,AIR PRODUCTS & CHEMICALS INC (100%),93464,C
2021,AIR PRODUCTS CARSON HYDROGEN PLANT,1002257,23300 SOUTH ALAMEDA STREET,33.812778,-118.231389,CARSON,LOS ANGELES COUNTY,CA,90810,AIR PRODUCTS & CHEMICALS INC (100%),711593,P
2021,AIR PRODUCTS WILMINGTON HYDROGEN PLANT,1002435,700 HENRY FORD AVENUE,33.780833,-118.241111,WILMINGTON,LOS ANGELES COUNTY,CA,90744,AIR PRODUCTS & CHEMICALS INC (100%),688241,P
2021,AJAX PLANT,1010475,16600 CR N,35.546399,-100.116256,Wheeler,,TX,79014,MIDCOAST ENERGY LLC (100%),34980,"C,W"
2021,AKER PLANT,1003129,261 FCR 181,31.91,-96.2233,STREETMAN,FREESTONE COUNTY,TX,75859,MIDCOAST ENERGY LLC (100%),39877,"C,PP,W"
2021,AKRON REGIONAL LANDFILL *,1006088,1585 HARDY ROAD,41.151282,-81.559298,AKRON,SUMMIT COUNTY,OH,44313,WASTE MANAGEMENT INC (100%),2276,HH
2021,AL CORN CLEAN FUEL,1005149,797 5th Street,44.049412,-93.017379,CLAREMONT,DODGE COUNTY,MN,55924,AL-CORN CLEAN FUEL (100%),187877,C
2021,AL Sandersville,1000129,1600 MILLS LINDSEY SCHOOL ROAD,33.1189,-82.8608,WARTHEN,Washington,GA,31094,AL SANDERSVILLE LLC (100%),96515,D
2021,"ALABAMA RIVER CELLULOSE, LLC",1007917,2373 LENA LANDEGGER HWY,31.580112,-87.490073,PERDUE HILL,MONROE COUNTY,AL,36470,KOCH INDUSTRIES INC (100%),346849,"AA,C,TT"
2021,ALADDIN MILLS - ANTIOCH RD PLA NT,1007272,2001 ANTIOCH ROAD,34.73399,-84.94646,DALTON,WHITFIELD COUNTY,GA,30720,MOHAWK INDUSTRIES INC (100%),46381,C
2021,ALBANY LANDFILL,1006276,525 RAPP RD,42.70324,-73.84958,ALBANY,ALBANY COUNTY,NY,12205,CITY OF ALBANY (100%),59194,HH
2021,ALBEMARLE CORPORATION HOUSTON PLANT,1003402,2500 N. SOUTH ST.,29.742498,-95.165513,PASADENA,HARRIS COUNTY,TX,77503,ALBEMARLE CORP (100%),45837,C
2021,ALBEMARLE CORPORATION-SOUTH PLANT,1004307,2270 HWY 79 SOUTH OF MAGNOLIA,33.1756,-93.2169,MAGNOLIA,COLUMBIA COUNTY,AR,71753,ALBEMARLE CORP (100%),77505,C
2021,ALCOA INC - WARRICK OPERATIONS,1001877,,37.915,-87.3328,NEWBURGH,WARRICK COUNTY,IN,47629,ALCOA CORP (100%),5724447,"C,D,F"
2021,ALCOA INTALCO WORKS,1003562,4050 MOUNTAIN VIEW RD.,48.8455,-122.7055,FERNDALE,WHATCOM COUNTY,WA,98248,ALCOA CORP (100%),9411,"C,F,TT"
2021,ALCOA WORLD ALUMINA ATLANTIC,1003201,,28.65083,-96.56222,POINT COMFORT,CALHOUN COUNTY,TX,77978,ALCOA CORP (60%); ALCOA CORP (60%),13655,"C,TT"
2021,ALCOA-MARYVILLE-BLOUNT COUNTY LANDFILL,1003147,240 Long Powers Road,35.73834,-84.05978,Friendsville,BLOUNT COUNTY,TN,37737,COUNTY OF BLOUNT (40%); CITY OF ALCOA (30%); CITY OF MARYVILLE (30%),84858,HH
2021,ALL PURPOSE LANDFILL,1004335,5401 Lafayette Street,37.4135,-121.9724,SANTA CLARA,SANTA CLARA COUNTY,CA,95050,CITY OF SANTA CLARA CA (100%),47082,HH
2021,ALLEGANY BALLISTICS LABORATORY,1005862,210 STATE ROUTE 956,39.56097,-78.84361,KEYSER,MINERAL COUNTY,WV,26726,NORTHROP GRUMMAN CORP (100%),22628,C
2021,ALLEN COUNTY PUBLIC WORKS,1007192,1170 2800TH ST,37.901209,-95.280776,LA HARPE,ALLEN COUNTY,KS,66751,COUNTY OF ALLEN (100%),67902,"C,HH"
2021,ALLIANCE COMPRESSOR STATION,1005887,12495 HWY 114,33.03512,-97.331434,JUSTIN,DENTON COUNTY,TX,76247,CRESTWOOD EQUITY PARTNERS LP (100%),49189,"C,W"
2021,ALLIANCE PIPELINE - OLIVIA 23-A,1005705,38884 870TH AVE,44.8491,-94.8969,BIRD ISLAND,RENVILLE COUNTY,MN,55310,ALLIANCE PIPELINE LP (50%); ENBRIDGE ENERGY MANAGEMENT LLC (50%),83213,"C,W"
2021,ALLIANCE PIPELINE L.P. - MANCHESTER,1001559,1242 220TH STREET,42.46915,-91.55145,MANCHESTER,DELAWARE COUNTY,IA,52057,ALLIANCE PIPELINE LP (50%); ENBRIDGE ENERGY MANAGEMENT LLC (50%),82556,"C,W"
2021,ALLIANCE PIPELINE LP-Tampico,1001560,580 TAMPICO RD,41.592546,-89.784245,TAMPICO,WHITESIDE COUNTY,IL,61283,ALLIANCE PIPELINE LP (50%); ENBRIDGE ENERGY MANAGEMENT LLC (50%),59479,"C,W"
2021,"ALLIANCE PIPELINE, L.P.-FAIRMOUNT COMPRESSOR STATION",1000245,17950 98TH ST SE,45.993367,-96.648999,FAIRMOUNT,RICHLAND COUNTY,ND,58030,ALLIANCE PIPELINE LP (50%); ENBRIDGE ENERGY MANAGEMENT LLC (50%),87095,"C,W"
2021,"ALLIANCE PIPELINE, L.P.-WIMBLEDON COMPRESSOR STATION",1001558,1540 98TH AVE SE,47.191058,-98.42561,WIMBLEDON,BARNES COUNTY,ND,58492,ALLIANCE PIPELINE LP (50%); ENBRIDGE ENERGY MANAGEMENT LLC (50%),88291,"C,W"
2021,ALLIANCE SANI LDFL,1007645,398 KEYSER AVENUE,41.3965,-75.7375,TAYLOR,LACKAWANNA COUNTY,PA,18517,WASTE MANAGEMENT INC (100%),48527,"C,HH"
2021,ALLIED IMPERIAL LANDFILL,1006197,104 EAST ROBINSON ROAD,32.854701,-115.52505,IMPERIAL,IMPERIAL COUNTY,CA,92251,REPUBLIC SERVICES INC (100%),26326,HH
2021,ALLISON GAS PLANT,1007496,16298 Co. Rd. EE,35.60785,-100.10148,Allison,WHEELER COUNTY,TX,79003,MIDCOAST ENERGY LLC (100%),43873,"C,W"
2021,"ALLISON TRANSMISSION, Inc.",1000048,One Allison Way,39.779861,-86.240969,INDIANAPOLIS,MARION COUNTY,IN,46222,ALLISON TRANSMISSION HOLDINGS INC (100%),27386,C
2021,ALLP Greenriver Basin,1012251,1801 California Street Suite 1200,39.747626408136,-104.989773387027,Denver,,CO,80202,MARATHON PETROLEUM CORP (100%),116726,W
2021,ALLP Uinta Basin,1012248,1801 California St. Suite 1200,39.747626408136,-104.989773387027,Denver,,CO,80202,MARATHON PETROLEUM CORP (100%),107655,W
2021,ALMATIS INC - BAUXITE ARKANSAS,1004327,4701 ALCOA ROAD,34.57522,-92.53173,Benton,SALINE COUNTY,AR,72015,ALMATIS INC (100%),68153,C
2021,ALON REFINING KROTZ SPRINGS INC,1007622,356 S. LEVEE RD,30.526504,-91.748383,KROTZ SPRINGS,ST. LANDRY PARISH,LA,70750,DELEK US HOLDINGS INC (100%),459817,"C,MM,Y"
2021,"ALPEK POLYESTER MISSISSIPPI, INC.",1003081,3303 PORT AND HARBOR DRIVE,30.233028,-89.561667,BAY SAINT LOUIS,HANCOCK COUNTY,MS,39520,DAK AMERICAS LLC (100%),56829,C
2021,"ALPEK POLYESTER USA, LLC",1004178,3216 CEDAR CREEK RD,34.98305,-78.78722,FAYETTEVILLE,CUMBERLAND COUNTY,NC,28312,DAK AMERICAS LLC (100%),47401,C
2021,ALPHA RIDGE LANDFILL,1007291,2350 MARRIOTTSVILLE ROAD,39.30718,-76.89862,MARRIOTTSVILLE,HOWARD COUNTY,MD,21104,HOWARD COUNTY OF MARYLAND (INC) (100%),16060,"C,HH"
2021,ALTIVIA Institute Facilities,1013670,250 Carbide Rd,38.384705,-81.776181,Dunbar,KANAWHA COUNTY,WV,25064,ALTIVIA SERVICES LLC (100%),101392,C
2021,"ALTIVIA Petrochemicals, LLC - HAVERHILL COMPLEX",1007401,1019 HAVERHILL OHIO FURNACE ROAD,38.59167,-82.81944,HAVERHILL,SCIOTO COUNTY,OH,45636,ALTIVIA CORP (100%),26970,C
2021,ALTO COLUMBIA LLC,1007263,71335 RAIL LOOP DRIVE,45.855921,-119.656083,BOARDMAN,MORROW COUNTY,OR,97818,ALTO INGREDIENTS INC (100%),38466,"C,PP"
2021,ALTO MAGIC VALLEY LLC,1007264,2600 WASHINGTON AVENUE,42.521324,-113.815693,BURLEY,CASSIA COUNTY,ID,83318,ALTO INGREDIENTS INC (100%),6660,C
2021,ALTON STEEL COMPANY,1003268,#5 CUT ST.,38.88321,-90.14503,ALTON,MADISON COUNTY,IL,62002,ALTON STEEL INC (100%),35074,"C,Q"
2021,ALYESKA PIPELINE SE/TAPS PUMP STATION 01,1005184,,70.257222,-148.617778,PRUDHOE BAY,NORTH SLOPE BOROUGH,AK,99734,ALYESKA PIPELINE SERVICE CO (100%),72700,C
2021,"ALYESKA PIPELINE SERVICE COMPANY, Valdez Marine Terminal",1005781,300 DAYVILLE ROAD,61.084857,-146.388531,VALDEZ,VALDEZ-CORDOVA CENSUS AREA,AK,99686,ALYESKA PIPELINE SERVICE CO (100%),24416,C
2021,"AM/NS Calvert, LLC",1005491,1 AM/NS Way,31.146111,-87.992778,CALVERT,MOBILE COUNTY,AL,36513,AM/NS CALVERT LLC (100%),558098,C
2021,AMALGAMATED SUGAR CO LLC,1005712,2320 ORCHARD DR. E.,42.531995,-114.431448,TWIN FALLS,TWIN FALLS COUNTY,ID,83301,Amalgamated Sugar Co (100%),281952,"C,S"
2021,AMALGAMATED SUGAR CO LLC,1006412,50 SOUTH 500 WEST,42.611671,-113.757423,PAUL,MINIDOKA COUNTY,ID,83347,Amalgamated Sugar Co Oregon Cooperative CORP (100%),284765,"C,S,TT"
2021,AMALGAMATED SUGAR CO LLC,1005707,138 WEST KARCHER ROAD,43.612136,-116.579232,NAMPA,CANYON COUNTY,ID,83687,Amalgamated Sugar Co Oregon Cooperative CORP (100%),353016,"C,S,TT"
2021,AMEA Sylacauga Plant,1007178,125 THOMPSON LANE,33.1661,-86.2825,SYLACAUGA,Talladega,AL,35150,ALABAMA MUNICIPAL ELECTRIC AUTHORITY (100%),27827,D
2021,AMERICAN ACRYL PASADENA,1004732,"4631 Old Hwy 146, Suite B",29.608982,-95.054226,PASADENA,HARRIS COUNTY,TX,77507,ARKEMA DELAWARE INC (50%); NIPPON SHOKUBAI AMERICA INDUSTRIES INC (50%),80097,C
2021,AMERICAN AIRLINES,1005432,3800 NORTH MINGO ROAD,36.204822,-95.868808,TULSA,TULSA COUNTY,OK,74116,AMERICAN AIRLINES GROUP INC (100%),38165,C
2021,AMERICAN AVENUE LANDFILL,1004417,18950 W AMERICAN AVENUE,36.661764,-120.132645,KERMAN,FRESNO COUNTY,CA,93630,COUNTY OF FRESNO (100%),110384,"C,HH"
2021,AMERICAN CAST IRON PIPE CO,1005327,1500 32nd Avenue North,33.54698,-86.83465,BIRMINGHAM,JEFFERSON COUNTY,AL,35207,AMERICAN CAST IRON PIPE CO (100%),175270,C
2021,AMERICAN COLLOID,1008041,,44.86636,-104.1513,Colony,BUTTE COUNTY,WY,82710,MINERALS TECHNOLOGIES INC (100%),52598,C
2021,AMERICAN CRYSTAL SUGAR - CROOKSTON,1006354,1201 Hwy 75 South,47.764625,-96.629975,CROOKSTON,POLK COUNTY,MN,56716,AMERICAN CRYSTAL SUGAR CO (100%),292277,"C,S,TT"
2021,AMERICAN CRYSTAL SUGAR - E GRAND FORKS,1005751,1020 Business Hwy 2,47.925833,-97.006111,EAST GRAND FORKS,POLK COUNTY,MN,56721,AMERICAN CRYSTAL SUGAR CO (100%),385350,"C,S,TT"
2021,AMERICAN CRYSTAL SUGAR - HILLSBORO,1005753,121 Highway 81 NE,47.435833,-97.0625,HILLSBORO,TRAILL COUNTY,ND,58045,AMERICAN CRYSTAL SUGAR CO (100%),484616,"C,S,TT"
2021,AMERICAN CRYSTAL SUGAR - MOORHEAD,1006877,2500 NORTH 11TH STREET,46.903056,-96.759722,MOORHEAD,CLAY COUNTY,MN,56560,AMERICAN CRYSTAL SUGAR CO (100%),288161,"C,S,TT"
2021,AMERICAN ENVIRONMENTAL LANDFILL,1002552,212 N. 177TH W. AVENUE,36.163345,-96.188988,SAND SPRINGS,OSAGE COUNTY,OK,74063,AMERICAN ENVIRONMENTAL LANDFILL INC (100%),201370,"C,HH"
2021,AMERICAN GYPSUM - BERNALILLO (WALLBOARD) PLANT,1000007,1000 N HILL RD,35.330083,-106.5275,BERNALILLO,SANDOVAL COUNTY,NM,87004,EAGLE MATERIALS INC (100%),15260,C
2021,AMERICAN GYPSUM CO /GYPSUM WALLBOARD PLT,1005175,0.25 MILES W OF,34.66029,-99.58732,DUKE,JACKSON COUNTY,OK,73532,EAGLE MATERIALS INC (100%),99825,C
2021,AMERICAN GYPSUM COMPANY,1004845,4600 Paseo Del Norte NE,35.17237,-106.59347,ALBUQUERQUE,BERNALILLO COUNTY,NM,87113,EAGLE MATERIALS INC (100%),44340,C
2021,AMERICAN GYPSUM COMPANY,1007404,740 Highway #6,39.658889,-106.956111,GYPSUM,EAGLE COUNTY,CO,81637,EAGLE MATERIALS INC (100%),65717,C
2021,AMERICAN REFINING GROUP INC,1005590,77 NORTH KENDALL AVENUE,41.965472,-78.633108,BRADFORD,MCKEAN COUNTY,PA,16701,AMERICAN REFINING GROUP INC (100%),125098,"C,MM,Y"
2021,AMERICAN SUGAR REFINING INC - Chalmette Refinery,1001860,7417 N PETERS ST,29.953741,-89.997638,ARABI,ST. BERNARD PARISH,LA,70032,FANJUL CORP (100%),169307,C
2021,AMERICAN SYNTHETIC RUBBER,1006919,4500 CAMPGROUND ROAD,38.209167,-85.843611,LOUISVILLE,JEFFERSON COUNTY,KY,40216,MICHELIN NORTH AMERICA INC (100%),188663,C
2021,AMERICAS STYRENICS LLC - ST JAMES PLANT,1001962,9901 HWY 18,30.08013,-90.916,ST. JAMES,ST. JAMES PARISH,LA,70086,CHEVRON CORP (50%); TRINSEO PLC (50%),733592,C
2021,"AMGEN MANUFACTURING, LIMITED",1005072,RD 31 KM 24.6,18.2375,-65.907222,JUNCOS,JUNCOS MUNICIPIO,PR,777,AMGEN INC (100%),41580,C
2021,AMP Angelina - Basin 260 G&B,1013405,600 Travis Suite 5500,29.7605685060526,-95.3642162896019,Houston,,TX,77002,AMP ANGELINA LLC (100%),48246,W
2021,AMP Fremont Energy Center,1008730,1275 Miarer Rd,41.355909,-83.122007,Fremont,SANDUSKY COUNTY,OH,43420,AMERICAN MUNICIPAL POWER INC (100%),1404363,D
2021,ANALOG DEVICES,1004746,4200 NW PACIFIC RIM BLVD,45.59995,-122.45204,CAMAS,CLARK COUNTY,WA,98607,ANALOG DEVICES INC (100%),15173,"C,I"
2021,ANCHOR ACQUISITION LLC MONACA PLT,1006810,400 9TH STREET,40.69152,-80.2808,MONACA,BEAVER COUNTY,PA,15061,"Stoelzle Glass USA, Inc (100%)",37874,"C,N"
2021,ANCHOR HOCKING GLASS CO PLANT NO 1 *,1004508,1115 WEST FIFTH AVENUE,39.71923,-82.61895,LANCASTER,FAIRFIELD COUNTY,OH,43130,Anchor Hocking CO (100%),92510,"C,N"
2021,ANCHORAGE REGIONAL LANDFILL,1007341,15500 E. EAGLE RIVER LOOP RD,61.290401,-149.604757,EAGLE RIVER,ANCHORAGE MUNICIPALITY,AK,99577,MUNICIPALITY OF ANCHORAGE - SOLID WASTE SERVICE (100%),170584,"C,HH"
2021,ANDERSON LANDFILL,1007839,18703 CAMBRIDGE ROAD,40.41754,-122.35787,ANDERSON,SHASTA COUNTY,CA,96007,WASTE MANAGEMENT INC (100%),37710,HH
2021,ANGELINA COUNTY WASTE MANAGEMENT CENTER,1005392,7521 FM 58,31.2525,-94.695,LUFKIN,ANGELINA COUNTY,TX,75901,COUNTY OF ANGELINA (100%),105041,HH
2021,ANHEUSER BUSCH BALDWINSVILLE BREWERY,1002576,2885 BELGIUM ROAD,43.1691,-76.3112,BALDWINSVILLE,ONONDAGA COUNTY,NY,13027,ANHEUSER-BUSCH COS LLC (100%),27481,"C,PP"
2021,ANHEUSER BUSCH INC,1006111,700 SCHROCK ROAD,40.103056,-82.993056,COLUMBUS,FRANKLIN COUNTY,OH,43229,ANHEUSER-BUSCH COS LLC (100%),34911,C
2021,ANHEUSER BUSCH INC. - L.A. BREWERY,1002867,15800 ROSCOE BOULEVARD,34.22132,-118.48044,VAN NUYS,LOS ANGELES COUNTY,CA,91406,ANHEUSER-BUSCH COS LLC (100%),31268,C
2021,ANHEUSER BUSCH INCORPORATED FORT COLLINS BREWERY,1003352,2351 BUSCH DRIVE,40.619722,-105.006111,FORT COLLINS,LARIMER COUNTY,CO,80524,ANHEUSER-BUSCH COS LLC (100%),43711,C
2021,ANHEUSER BUSCH LLC,1003176,7801 POCAHONTAS TRAIL,37.237518,-76.652662,WILLIAMSBURG,JAMES CITY COUNTY,VA,23185,ANHEUSER-BUSCH COS LLC (100%),36805,C
2021,ANHEUSER-BUSCH HOUSTON BREWERY,1003224,775 GELLHORN DRIVE,29.774444,-95.270833,HOUSTON,HARRIS COUNTY,TX,77029,ANHEUSER-BUSCH COS LLC (100%),44256,C
2021,ANHEUSER-BUSCH LLC,1006147,111 BUSCH DR.,30.432822,-81.647706,JACKSONVILLE,DUVAL COUNTY,FL,32218,ANHEUSER-BUSCH COS LLC (100%),56286,C
2021,ANHEUSER-BUSCH LLC,1002915,221 DANIEL WEBSTER HIGHWAY,42.822084,-71.488321,MERRIMACK,HILLSBOROUGH COUNTY,NH,3054,ANHEUSER-BUSCH COS LLC (100%),15748,"C,PP"
2021,"ANHEUSER-BUSCH, INC. CARTERSVI LLE BREWERY",1006904,100 BUSCH DR.,34.2557,-84.7825,CARTERSVILLE,BARTOW COUNTY,GA,30120,ANHEUSER-BUSCH COS LLC (100%),21227,C
2021,"ANHEUSER-BUSCH, INC. NEWARK BREWERY",1003525,200 US HIGHWAY ONE,40.6916,-74.1916,NEWARK,ESSEX COUNTY,NJ,7114,ANHEUSER-BUSCH COS LLC (100%),24309,C
2021,ANN ARBOR SLF PHASE I & II,1006178,4150 PLATT RD,42.22703,-83.69976,ANN ARBOR,WASHTENAW COUNTY,MI,48108,CITY OF ANN ARBOR (100%),31016,HH
2021,ANR Pipeline Alden CS,1004929,2135 11th Road,38.22602,-98.290368,ALDEN,RICE COUNTY,KS,67512,AMERICAN NATURAL RESOURCES CO (100%),3465,"C,W"
2021,ANR Pipeline Birmingham CS,1004926,2795 LOCUST AVE,40.901819,-91.967609,BIRMINGHAM,JEFFERSON COUNTY,IA,52535,AMERICAN NATURAL RESOURCES CO (100%),27412,"C,W"
2021,ANR Pipeline Blue Lake Complex Gas Storage Facility,1005958,10000 PFLUM RD NE,44.8367,-84.9669,MANCELONA,KALKASKA COUNTY,MI,49659,AMERICAN NATURAL RESOURCES CO (100%),44173,"C,W"
2021,ANR Pipeline Bridgman CS,1004928,3372 BROWNTOWN RD,41.897126,-86.534271,BRIDGMAN,BERRIEN COUNTY,MI,49106,AMERICAN NATURAL RESOURCES CO (100%),29951,"C,W"
2021,ANR Pipeline Brownsville CS,1005235,70 Pumping Station Road,35.631327,-89.189369,Brownsville,HAYWOOD COUNTY,TN,38012,AMERICAN NATURAL RESOURCES CO (100%),59379,"C,W"
2021,ANR Pipeline Celestine CS,1005245,146 S. Celestine South,38.377528,-86.777306,Celestine,DUBOIS COUNTY,IN,47521,AMERICAN NATURAL RESOURCES CO (100%),43793,"C,W"
2021,ANR Pipeline Cottage Grove CS,1009589,7845 Highway 140 N,36.390381,-88.481323,Cottage Grove,HENRY COUNTY,TN,38224,AMERICAN NATURAL RESOURCES CO (100%),35595,"C,W"
2021,ANR Pipeline Delhi CS,1011138,1894 Highway 80,32.462407,-91.5611,Delhi,RICHLAND PARISH,LA,71232,AMERICAN NATURAL RESOURCES CO (100%),35526,"C,W"
2021,ANR Pipeline E.G. Hill CS,1004932,15175 County Road,36.30068,-101.615777,GRUVER,HANSFORD COUNTY,TX,79040,AMERICAN NATURAL RESOURCES CO (100%),1186,"C,W"
2021,ANR Pipeline Enterprise CS,1004930,1615 NAIL ROAD,38.82909,-97.09359,ENTERPRISE,DICKINSON COUNTY,KS,67441,AMERICAN NATURAL RESOURCES CO (100%),25751,"C,W"
2021,ANR Pipeline Eunice CS,1013036,4202 Fournerat Road,30.466034,-92.520137,Eunice,ACADIA PARISH,LA,70535,AMERICAN NATURAL RESOURCES CO (100%),58642,"C,W"
2021,ANR Pipeline Greensburg CS,1004776,,37.61422,-99.396874,GREENSBURG,KIOWA COUNTY,KS,67054,AMERICAN NATURAL RESOURCES CO (100%),26313,"C,W"
2021,ANR Pipeline Greenville CS,1005238,1336 South Raceway Road,33.28468,-91.01969,Greenville,WASHINGTON COUNTY,MS,38703,AMERICAN NATURAL RESOURCES CO (100%),41196,"C,W"
2021,ANR Pipeline Hamilton CS,1004923,4193 134TH AVENUE,42.668172,-85.956426,HAMILTON,ALLEGAN COUNTY,MI,49419,AMERICAN NATURAL RESOURCES CO (100%),20048,"C,W"
2021,ANR Pipeline Havensville CS,1004935,19955 ENGLISH RIDGE RD,39.490718,-96.041662,HAVENSVILLE,POTTAWATOMIE COUNTY,KS,66432,AMERICAN NATURAL RESOURCES CO (100%),2493,"C,W"
2021,ANR Pipeline Jena CS,1013314,9992 Highway 127 South,31.537914,-92.181442,Jena,LA SALLE PARISH,LA,71342,AMERICAN NATURAL RESOURCES CO (100%),60481,"C,W"
2021,ANR Pipeline LaGrange CS,1013969,2255 West US 20,41.6413,-85.4685,LaGrange,LAGRANGE COUNTY,IN,46761,AMERICAN NATURAL RESOURCES CO (100%),20588,"C,W"
2021,ANR Pipeline Lineville CS,1005953,2868 15TH STREET,40.630044,-93.540108,LINEVILLE,WAYNE COUNTY,IA,50147,AMERICAN NATURAL RESOURCES CO (100%),7552,"C,W"
2021,ANR Pipeline Madisonville CS,1005242,7500 Nebo Road,37.3823,-87.6177,Madisonville,HOPKINS COUNTY,KY,77002,AMERICAN NATURAL RESOURCES CO (100%),35797,"C,W"
2021,ANR Pipeline Maitland CS,1005060,33854 COUNTY HIGHWAY TT,40.175383,-95.122361,MAITLAND,HOLT COUNTY,MO,64466,AMERICAN NATURAL RESOURCES CO (100%),29028,"C,W"
2021,ANR Pipeline Meade CS,1009733,28111 11 Road,37.078655,-100.47068,Meade,MEADE COUNTY,KS,67864,AMERICAN NATURAL RESOURCES CO (100%),6275,"C,W"
2021,ANR Pipeline New Windsor CS,1004769,296 NORTH 600 AVE,41.21009,-90.43646,NEW WINDSOR,HENRY COUNTY,IL,61465,AMERICAN NATURAL RESOURCES CO (100%),3447,"C,W"
2021,ANR Pipeline Patterson CS,1005243,3609 Highway 90,29.691875,-91.342885,PATTERSON,ST. MARY PARISH,LA,70392,AMERICAN NATURAL RESOURCES CO (100%),31843,"C,W"
2021,ANR Pipeline Sandwich CS,1004937,6650 SANDY BLUFF RD,41.6227,-88.58362,SANDWICH,KENDALL COUNTY,IL,60548,AMERICAN NATURAL RESOURCES CO (100%),9275,"C,W"
2021,ANR Pipeline Sardis CS,1005244,2099 Holly Grove Road,34.422978,-90.117504,Sardis,PANOLA COUNTY,MS,38666,AMERICAN NATURAL RESOURCES CO (100%),11994,"C,W"
2021,ANR Pipeline St. John CS,1004925,10313 WHITE OAK AVE,41.431667,-87.488972,ST JOHN,LAKE COUNTY,IN,46373,AMERICAN NATURAL RESOURCES CO (100%),8282,"C,W"
2021,ANR Pipeline Woodstock CS,1011137,15313 West South Street Road,42.298042,-88.495281,Woodstock,MCHENRY COUNTY,IL,60098,AMERICAN NATURAL RESOURCES CO (100%),39006,"C,W"
2021,ANR Pipeline Woolfolk CS,1004933,11039 150TH AVENUE,43.6249,-85.3844,BIG RAPIDS,MECOSTA COUNTY,MI,49307,AMERICAN NATURAL RESOURCES CO (100%),33880,"C,W"
2021,ANSHUTZ RANCH EAST GAS PLANT,1004802,20 MILES SOUTHWEST OF EVANSTON,41.067222,-111.040833,EVANSTON,UINTA COUNTY,WY,82930,NORTH SHORE E&P (100%),9477,"C,W"
2021,ANTELOPE VALLEY RECYCLING AND DISPOSAL FACILITY,1007710,1200 WEST CITY RANCH ROAD,34.5697,-118.1534,PALMDALE,LOS ANGELES COUNTY,CA,93551,WASTE MANAGEMENT INC (100%),51915,"C,HH"
2021,APACHE JUNCTION LANDFILL,1004003,4050 SOUTH TOMAHAWK RD,33.377246,-111.528771,APACHE JUNCTION,PINAL COUNTY,AZ,85219,REPUBLIC SERVICES INC (100%),27744,HH
2021,APACHE NITROGEN PRODUCTS - PLANT,1001908,1436 SOUTH APACHE POWDER ROAD,31.88,-110.24,St. David,COCHISE COUNTY,AZ,85630,FREEPORT-MCMORAN INC (50%); SOUTHWEST ENERGY LLC (50%),360042,"C,V"
2021,"APEX ENVIRONMENTAL, LLC - SANITARY LANDFILL (0641000223)",1006777,11 COUNTY ROAD 78,40.432403,-80.911512,AMSTERDAM,JEFFERSON COUNTY,OH,43903,APEX ENVIRONMENTAL LLC (100%),573401,"C,HH"
2021,APEX REGIONAL LANDFILL,1004352,13550 US HIGHWAY 93 NORTH,36.29423,-115.28183,LAS VEGAS,CLARK COUNTY,NV,89165,REPUBLIC SERVICES INC (100%),98533,"C,HH"
2021,"APG Polytech, LLC",1000793,27610 Huntington Road,38.663697,-82.16883,APPLE GROVE,MASON COUNTY,WV,25502,APG POLYTECH HOLDING (100%),44965,C
2021,APPLEBY TREATER,1010353,,31.6912,-94.5833,Appleby,NACOGDOCHES COUNTY,TX,75965,ENERGY TRANSFER LP (100%),46926,"C,W"
2021,APPLETON ROARING SPRING PAPER MFG,1005669,100 PAPER MILL RD.,40.33869,-78.40555,ROARING SPRING,BLAIR COUNTY,PA,16673,Appvion Holding CORP (100%),24114,"AA,C"
2021,APPVION - APPLETON PLT,1002596,825 E WISCONSIN AVE,44.2729,-88.39311,APPLETON,OUTAGAMIE COUNTY,WI,54911,"Wynnchurch Capital, LP (100%)",29173,C
2021,APR - Basin 430 - Gathering & Boosting,1013737,"400 W. Illinois, Suite 970",31.99954,-102.07847,Midland,MIDLAND COUNTY,TX,79701,APR OPERATING LLC (100%),151851,W
2021,APR - Basin 430 - Production,1013736,"400 W. Illinois, Suite 970",32.000017,-102.078534,Midland,,TX,79701,APR OPERATING LLC (100%),43738,W
2021,APS Saguaro Power Plant,1001423,MAIL POST 228,32.5517,-111.3,RED ROCK,Pinal,AZ,85245,PINNACLE WEST CAPITAL CORP (100%),63758,"C,D"
2021,APS West Phoenix Power Plant,1001422,4606 WEST HADLEY,33.4417,-112.1583,PHOENIX,Maricopa,AZ,85043,PINNACLE WEST CAPITAL CORP (100%),1287565,"C,D"
2021,AR GLASS CONTAINER CORP,1005906,516 WEST JOHNSON AVENUE,35.846639,-90.708361,JONESBORO,CRAIGHEAD COUNTY,AR,72401,GLASS ENERGY CO INC (100%),37522,"C,N"
2021,ARBOR HILLS LANDFILL,1008034,10690 W. SIX MILE RD,42.406821,-83.556249,NORTHVILLE,WASHTENAW COUNTY,MI,48167,GFL ENVIRONMENTAL USA INC (100%),213862,"C,HH"
2021,ARCELORMITTAL TUBULAR PRODUCTS USA LLC,1005385,132-140 W MAIN ST,40.88135,-82.66758,SHELBY,RICHLAND COUNTY,OH,44875,ARCELORMITTAL HOLDINGS LLC (100%),58551,C
2021,ARCHER DANIEL MIDLAND COMPANY,1002916,3000 E 8TH STREET,41.42139,-97.288612,COLUMBUS,PLATTE COUNTY,NE,68601,ARCHER DANIELS MIDLAND CO (100%),1092684,"C,II"
2021,ARCHER DANIELS MIDLAND,1001945,400 WEST ERIE ROAD,44.47056,-95.78417,MARSHALL,LYON COUNTY,MN,56258,ARCHER DANIELS MIDLAND CO (100%),173697,"C,II,PP"
2021,ARCHER DANIELS MIDLAND,1003215,2191 W CR 0 NS,40.2853,-86.5479,FRANKFORT,CLINTON COUNTY,IN,46041,ARCHER DANIELS MIDLAND CO (100%),47169,C
2021,ARCHER DANIELS MIDLAND COMPANY,1005935,7800 THAYER STREET,40.86667,-96.619116,LINCOLN,LANCASTER COUNTY,NE,68507,ARCHER DANIELS MIDLAND CO (100%),147112,C
2021,ARCHER DANIELS MIDLAND PROCESSING,1005940,1388 HIGHWAY 97,48.062103,-100.924722,VELVA,MCHENRY COUNTY,ND,58790,ARCHER DANIELS MIDLAND CO (100%),42600,C
2021,ARCONIC LAFAYETTE LLC,1004649,3131 E MAIN ST,40.395778,-86.859639,LAFAYETTE,TIPPECANOE COUNTY,IN,47905,ARCONIC INC (100%),35551,C
2021,ARCONIC TENNESSEE OPERATIONS,1002795,2300 N WRIGHT RD,35.811815,-83.969576,ALCOA,BLOUNT COUNTY,TN,37701,ARCONIC CORP (100%),203786,C
2021,ARDEN LDFL,1003456,200 Rangos Lane,40.208427,-80.264771,WASHINGTON,WASHINGTON COUNTY,PA,15301,WASTE MANAGEMENT INC (100%),21432,"C,HH"
2021,ARGOS CEMENT LLC. - ROBERTA PLANT,1006659,8039 HIGHWAY 25,33.1043,-86.7985,CALERA,SHELBY COUNTY,AL,35040,ARGOS USA LLC (100%),908193,H
2021,ARGOS USA -Martinsburg,1007566,1826 SOUTH QUEEN STREET,39.434879,-77.977911,MARTINSBURG,BERKELEY COUNTY,WV,25401,ARGOS USA LLC (100%),900617,"C,H"
2021,ARIZONA STATE UNIVERSITY,1006199,"300 E. University Drive, Suite 320",33.42195,-111.935,TEMPE,MARICOPA COUNTY,AZ,85281,ARIZONA STATE UNIVERSITY (100%),59497,C
2021,ARKALON ETHANOL LLC,1006203,8664 RD P,37.107705,-100.796294,LIBERAL,SEWARD COUNTY,KS,67901,CONESTOGA ENERGY HOLDINGS LLC (100%),103611,"C,PP"
2021,ARKANSAS LIME COMPANY,1002209,600 LIMEDALE ROAD,35.794,-91.736,BATESVILLE,INDEPENDENCE COUNTY,AR,72501,US LIME & MINERALS INC (100%),427194,"C,S"
2021,ARKANSAS STEEL ASSOCIATES,1005801,2803 VAN DYKE ROAD,35.648518,-91.244662,NEWPORT,JACKSON COUNTY,AR,72112,ARKANSAS STEEL ASSOCIATES LLC (100%),52645,"C,Q"
2021,ARKEMA BEAUMONT PLANT,1006644,2810 GULF STATES ROAD,30.060226,-94.058976,BEAUMONT,JEFFERSON COUNTY,TX,77701,ARKEMA DELAWARE INC (100%),67258,C
2021,ARKEMA INC CLEAR LAKE,1006797,9502 BAYPORT BLVD STE B,29.62139,-95.06389,PASADENA,HARRIS COUNTY,TX,77507,ARKEMA DELAWARE INC (100%),88084,C
2021,"ARKEMA, INC.",1005721,4444 INDUSTRIAL PARKWAY,37.056699,-88.365727,CALVERT CITY,MARSHALL COUNTY,KY,42029,ARKEMA DELAWARE INC (100%),354508,"C,L,OO"
2021,ARKLATX BUSINESS UNIT-BASIN 260 (East TX Only),1009811,"1000 Main Street, Suite 2900",29.7537256,-95.3592814,Houston,,TX,77002,MAVERICK NATURAL RESOURCES LLC (100%),56859,W
2021,ARLANXEO Orange Site,1013817,4647 FM 1006,30.049622,-93.772226,Orange,ORANGE COUNTY,TX,77630,ARLANXEO USA HOLDINGS CORP (100%),184580,C
2021,ARMSTRONG CEMENT & SUPPLY,1006785,100 CLEARFIELD ROAD,40.7948,-79.70017,CABOT,BUTLER COUNTY,PA,16023,SNYDER ASSOCIATED COS INC (100%),191013,"C,H"
2021,ARMSTRONG WORLD IND MARIETTA CEILING PLT,1003208,1507 RIVER ROAD,40.0586,-76.58845,MARIETTA,LANCASTER COUNTY,PA,17547,ARMSTRONG WORLD INDUSTRIES INC (100%),69726,C
2021,ARMSTRONG WORLD INDUSTRIES INC.,1002968,300 SOUTH MYRICK ST,30.408671,-87.250165,PENSACOLA,ESCAMBIA COUNTY,FL,32505,ARMSTRONG WORLD INDUSTRIES INC (100%),25649,C
2021,ARTESIA GAS PLANT,1002515,,32.7564,-104.2111,ARTESIA,EDDY COUNTY,NM,88210,DCP MIDSTREAM LP (100%),93385,"C,PP,UU,W"
2021,ASARCO LLC AMARILLO COPPER REFINERY,1002494,7001 NORTH HIGHWAY 136,35.284716,-101.730177,AMARILLO,POTTER COUNTY,TX,79108,AMERICAS MINING CORP (100%),17256,C
2021,ASARCO LLC Hayden Operations,1002486,866 N. Hayden Avenue,33.003378,-110.77632,Hayden,GILA COUNTY,AZ,85135,AMERICAS MINING CORP (100%),491,C
2021,ASCEND PERFORMANCE MATERIALS CHOCOLATE BAYOU FACILITY,1002190,,29.2567,-95.2144,ALVIN,BRAZORIA COUNTY,TX,77512,SK CAPITAL PARTNERS II LP (100%),593859,"C,X"
2021,ASCEND PERFORMANCE MATERIALS OPERATIONS LLC,1003975,1515 HWY 246 S,34.2306,-82.05776,GREENWOOD,GREENWOOD COUNTY,SC,29646,SK CAPTITAL PARTNER II LP (100%),49097,C
2021,ASH GROVE CEMENT CO-CHANUTE PLANT,1002665,1801 NORTH SANTA FE STREET,37.698786,-95.459748,CHANUTE,NEOSHO COUNTY,KS,66720,CRH AMERICAS INC (100%),1325735,"C,H"
2021,ASH GROVE CEMENT COMPANY,1002421,900 GIFCO ROAD,32.51993,-97.0068,MIDLOTHIAN,ELLIS COUNTY,TX,76065,CRH AMERICAS INC (100%),698098,"C,H"
2021,ASH GROVE CEMENT COMPANY-DURKEE,1002527,33060 SHIRTTAIL CREEK ROAD,44.542325,-117.42053,DURKEE,BAKER COUNTY,OR,97905,CRH AMERICAS INC (100%),690675,"C,H"
2021,ASH GROVE CEMENT COMPANY-Louisville,1007552,16215 HWY. 50,41.005565,-96.154917,LOUISVILLE,CASS COUNTY,NE,68037,CRH AMERICAS INC (100%),712441,"C,H"
2021,ASH GROVE CEMENT COMPANY-MONTANA CITY,1002531,100 HIGHWAY 518,46.54448,-111.92062,CLANCY,JEFFERSON COUNTY,MT,59634,CRH AMERICAS INC (100%),316495,"C,H"
2021,ASH GROVE CEMENT COMPANY-SEATTLE,1002537,3801 EAST MARGINAL WAY SOUTH,47.56799,-122.34255,SEATTLE,KING COUNTY,WA,98134,ASH GROVE CEMENT CO (100%),359054,"C,H"
2021,ASH GROVE CEMENT-FOREMAN,1007606,4343 HWY 108,33.6936,-94.4166,Foreman,LITTLE RIVER COUNTY,AR,71836,ASH GROVE CEMENT CO (100%),887250,"C,H"
2021,ASHLEY Energy LLC,1003496,1 ASHLEY STREET,38.63639,-90.18108,SAINT LOUIS,ST. LOUIS CITY,MO,63102,ASHLEY ENERGY LLC (100%),45151,C
2021,ASTORIA ENERGY LLC & ASTORIA ENERGY II LLC,1004576,17-10 STEINWAY ST,40.7825,-73.8964,ASTORIA,QUEENS COUNTY,NY,11105,ASTORIA PROJECT PARTNERS LLC (100%),2336285,"C,D"
2021,ATASCOCITA RECYCLING AND DISPOSAL FACILITY,1007800,3623 WILSON ROAD,29.95135,-95.24966,HUMBLE,HARRIS COUNTY,TX,77396,WASTE MANAGEMENT INC (100%),288163,HH
2021,ATHENS & CLARKE COUNTIES-DUNLAP ROAD LF,1006056,5700 LEXINGTON RD,33.9257,-83.2634,WINTERVILLE,CLARKE COUNTY,GA,30683,UNIFIED GOVERNMENT OF ATHENS-CLARKE COUNTY (100%),62365,HH
2021,ATI LADISH LLC,1005442,5481 S PACKARD AVE,42.947167,-87.8615,CUDAHY,MILWAUKEE COUNTY,WI,53110,ALLEGHENY TECHNOLOGIES INC (100%),44802,C
2021,"ATI Specialty Materials, Monroe Plant",1006778,2020 ASHCRAFT AVENUE,34.98548,-80.517139,MONROE,UNION COUNTY,NC,28110,ALLEGHENY TECHNOLOGIES INC (100%),49705,C
2021,"ATLANTIC ALUMINA, GRAMERCY OPERATIONS",1007929,1111 E AIRLINE HIGHWAY,30.066583,-90.701823,GRAMERCY,ST. JAMES PARISH,LA,70052,GRAMERCY HOLDINGS I LLC (100%),801661,C
2021,ATLANTIC COUNTY LANDFILL,1001858,6700 Delilah Road,39.41653,-74.54036,EGG HARBOR TOWNSHIP,ATLANTIC COUNTY,NJ,8234,ATLANTIC COUNTY UTILITIES AUTHORITY (100%),78463,"C,HH"
2021,ATLANTIC WASTE DISPOSAL INC - SUSSEX COUNTY LAND,1003826,3474 ATLANTIC LN,37.061279,-77.177106,WAVERLY,SUSSEX COUNTY,VA,23890,WASTE MANAGEMENT INC (100%),138228,"C,HH"
2021,AUBURN SANITARY LANDFILL NO 2,1003034,311 NORTH DIVISION STREET,42.95203,-76.5868,AUBURN,CAYUGA COUNTY,NY,13021,CITY OF AUBURN (100%),3462,"C,HH"
2021,AUDUBON METALS LLC,1005000,3055 OHIO DR.,37.808762,-87.632861,HENDERSON,HENDERSON COUNTY,KY,42420,KOCH ENTERPRISES INC (100%),46489,C
2021,AUGUSTA COUNTY SVC AUTHORITY LANDFILL,1006344,749 Christians Creek Road,38.0781,-79.0635,STAUNTON,AUGUSTA COUNTY,VA,24401,COUNTY OF AUGUSTA (57.73%); CITY OF WAYNESBORO (21.86%); CITY OF STAUNTON (20.41%),99413,"C,HH"
2021,AUSTIN WHITE LIME COMPANY MCNEIL PLANT & QUARRY,1007346,14001 MCNEIL ROAD,30.45407,-97.72091,AUSTIN,TRAVIS COUNTY,TX,78728,AUSTIN WHITE LIME CO (100%),213643,"C,S"
2021,AUTUMN HILLS RECYCLING AND DISPOSAL FACILITY,1006132,700 56TH AVENUE,42.780647,-85.920569,ZEELAND,OTTAWA COUNTY,MI,49464,WASTE MANAGEMENT INC (100%),87155,"C,HH"
2021,AUX SABLE LIQUID PRODUCTS INC,1005770,6155 EAST U.S. ROUTE 6,41.41305,-88.305556,MORRIS,GRUNDY COUNTY,IL,60450,AUX SABLE LIQUID PRODUCTS LP (100%),300870,"C,NN,W"
2021,AVA LANDFILL,1003033,7044 ST RTE 294,43.461,-75.412,AVA,ONEIDA COUNTY,NY,13303,ONEIDA HERKIMER SOLID WASTE MANAGEMENT AUTHORITY INC (100%),71957,"C,HH"
2021,AVENAL REGIONAL LANDFILL,1003328,1200 Skyline Blvd,36.01195,-120.11535,AVENAL,KINGS COUNTY,CA,93204,AVENAL REGIONAL LANDFILL (100%),20200,HH
2021,AVINGER GAS PLANT,1003082,2339 Avinger Cut Off Road,32.872582,-94.584072,Avinger,MARION COUNTY,TX,75630,MIDCOAST ENERGY LLC (100%),39340,"C,W"
2021,AZUSA LAND RECLAMATION CO INC INERT LF,1007682,1211 W GLADSTONE ST,34.11432,-117.92861,AZUSA,LOS ANGELES COUNTY,CA,91702,WASTE MANAGEMENT INC (100%),116149,"C,HH"
2021,Abbott Laboratories,1000378,1250 West Maricopa Highway,32.896,-111.7848,Casa Grande,PINAL COUNTY,AZ,85193,ABBOTT LABORATORIES (100%),24468,C
2021,Abbott Nutrition,1012993,585 Cleveland Ave,39.97553,-82.98999,Columbus,FRANKLIN COUNTY,OH,43215,ABBOTT LABORATORIES (100%),25392,C
2021,Abbott Nutrition - A Division of Abbott Laboratories,1003205,1518 MAIN STREET,37.13375,-79.26404,ALTAVISTA,CAMPBELL COUNTY,VA,24517,ABBOTT LABORATORIES (100%),29560,C
2021,Aberdeen Generating Station,1010630,421 30th Ave SW,45.45807,-98.50242,Aberdeen,,SD,57401,NORTHWESTERN CORP (100%),36817,"C,D"
2021,Abilene Environmental Landfill,1012891,1984 FM 3034,32.523921,-99.750711,Abilene,JONES COUNTY,TX,79601,ABILENE ENVIRONMENTAL LANDFILL INC (100%),33241,HH
2021,Abilene Regional Landfill,1007357,,32.534633,-99.753812,Abilene,JONES COUNTY,TX,79601,REPUBLIC SERVICES INC (100%),185471,HH
2021,Abraxas Petroleum 430 Permian Basin,1013417,18803 Meisner Dr.,31.56434,-102.796,San Antonio,,TX,78258,ABRAXAS PETROLEUM CORP (100%),115833,W
2021,Acadia Power Station,1001347,30385 CROWLEY EUNICE HWY,30.4284,-92.4112,EUNICE,Acadia,LA,70535,CLECO CORPORATE HOLDINGS LLC (50%); ENTERGY CORP (50%),1976826,D
2021,Accident Station,1008234,196 Texas Eastern Drive,39.633667,-79.340479,Accident,GARRETT COUNTY,MD,21520,Enbridge (US) Inc (100%),22645,"C,W"
2021,Ackerman Combined Cycle,1000125,2510 PENSACOLA ROAD,33.38,-89.2091,ACKERMAN,Choctaw,MS,39735,US GOVERNMENT (%),1326722,"C,D"
2021,Acme Brick - Denton Plant,1011325,220 East Daniels St,33.188675,-97.135707,Denton,DENTON COUNTY,TX,76205,BERKSHIRE HATHAWAY INC (100%),20869,C
2021,Acme Brick - Texas Clay Plants,1012051,402 E Bartlett,32.166628,-96.017302,Malakoff,HENDERSON COUNTY,TX,75148,BERKSHIRE HATHAWAY INC (100%),22880,C
2021,Ada County Solid Waste Management,1003446,10300 Seaman's Gulch Road,43.723526,-116.269298,Boise,ADA COUNTY,ID,83714,COUNTY OF ADA (100%),104893,"C,HH"
2021,Addis Carbon Black Plant,1000603,5221 Sid Richardson Road,30.3288,-91.2792,Addis,WEST BATON ROUGE PARISH,LA,70710,TOKAI CARBON CB LTD (100%),291960,"C,X"
2021,AdvanSix Resins & Chemicals LLC,1000089,2501 MARGARET STREET,40.0067,-75.0686,PHILADELPHIA,Philadelphia,PA,19137,ADVANSIX INC (100%),164946,C
2021,Advance Energy Partners - Basin 430,1013983,"11490 Westheimer Road, Suite 950",29.7380743686263,-95.5807676716953,Houston,,TX,77077,ADVANCE ENERGY PARTNERS LLC (100%),103285,W
2021,Advanced Magnesium Alloys Corporation,1010185,1820 E. 32nd st.,40.085371,-85.658666,Anderson,MADISON COUNTY,IN,46013,PHOENIX GLOBAL HOLDINGS (100%),323304,T
2021,"Advanced Tri-Gen Power Systems, LLC",1006553,1823 East Boy Scout Road,40.843067,-89.564148,Chillicothe,PEORIA COUNTY,IL,61523,CATERPILLAR INC (100%),130138,C
2021,Advancion Corporation,1002263,350 LOUISIANA HIGHWAY 2,32.6907,-92.0826,STERLINGTON,OUACHITA PARISH,LA,71280,ARUBA INVESTMENTS INC (100%),118714,"C,V"
2021,"Aemetis Advanced Fuels Keyes, Inc.",1012089,4209 Jessup Road,37.553007,-120.916475,Ceres,,CA,95307,AEMETIS INC (100%),74282,"C,PP"
2021,Aera Energy 25 Hill,1002316,29235 Highway 33,35.09233,-119.407371,Maricopa,KERN COUNTY,CA,93252,SHELL PETROLEUM INC (51.8%); EXXON MOBIL CORP (48.2%),73893,C
2021,Aera Energy Alberta Finley Shale,1002156,25401 Highway 33,35.22925,-119.58286,Fellows,KERN COUNTY,CA,93224,SHELL PETROLEUM INC (51.8%); EXXON MOBIL CORP (48.2%),105906,C
2021,Aera Energy Anderson Fitzgerald,1006844,59231 Main Camp Road,35.299879,-119.742604,McKittrick,KERN COUNTY,CA,93251,SHELL PETROLEUM INC (51.8%); EXXON MOBIL CORP (48.2%),223856,C
2021,Aera Energy Belridge,1006845,59231 Main Camp Road,35.45306,-119.719337,McKittrick,KERN COUNTY,CA,93251,SHELL PETROLEUM INC (51.8%); EXXON MOBIL CORP (48.2%),1459910,C
2021,Aera Energy Buena Fe,1003702,29235 Highway 33,35.09233,-119.407371,Maricopa,KERN COUNTY,CA,93252,SHELL PETROLEUM INC (51.8%); EXXON MOBIL CORP (48.2%),10346,C
2021,Aera Energy Calso,1002315,59231 Main Camp Road,35.299879,-119.742604,McKittrick,KERN COUNTY,CA,93251,SHELL PETROLEUM INC (51.8%); EXXON MOBIL CORP (48.2%),42868,C
2021,Aera Energy Coalinga,1006405,29010 Shell Road,36.2459,-120.32813,Coalinga,FRESNO COUNTY,CA,93210,SHELL PETROLEUM INC (51.8%); EXXON MOBIL CORP (48.2%),167457,C
2021,Aera Energy Coastal G and B,1012355,66893 Sargent Road,35.954969,-120.864089,San Ardo,MONTEREY COUNTY,CA,93450,SHELL PETROLEUM INC (51.8%); EXXON MOBIL CORP (48.2%),2408,W
2021,Aera Energy Lockwood,1012480,29235 Highway 33,35.09233,-119.407371,Maricopa,KERN COUNTY,CA,93525,SHELL PETROLEUM INC (51.8%); EXXON MOBIL CORP (48.2%),7844,C
2021,Aera Energy Lost Hills,1005790,59231 Main Camp Road,35.299879,-119.742604,McKittrick,KERN COUNTY,CA,93251,SHELL PETROLEUM INC (51.8%); EXXON MOBIL CORP (48.2%),130841,C
2021,Aera Energy MOCO,1006914,29235 Highway 33,35.09233,-119.407371,Maricopa,KERN COUNTY,CA,93252,SHELL PETROLEUM INC (51.8%); EXXON MOBIL CORP (48.2%),127122,C
2021,Aera Energy Metson,1005635,29235 Highway 33,35.09233,-119.407371,Maricopa,KERN COUNTY,CA,93252,SHELL PETROLEUM INC (51.8%); EXXON MOBIL CORP (48.2%),22711,C
2021,Aera Energy Penn Zier,1012475,29010 Shell Road,36.2459,-120.32813,Coalinga,FRESNO COUNTY,CA,93210,SHELL PETROLEUM INC (51.8%); EXXON MOBIL CORP (48.2%),31542,C
2021,Aera Energy San Ardo,1006846,66893 Sargent Road,35.954969,-120.864089,San Ardo,MONTEREY COUNTY,CA,93450,SHELL PETROLEUM INC (51.8%); EXXON MOBIL CORP (48.2%),228639,C
2021,Aera Energy San Joaquin Basin,1008346,10000 Ming Avenue,35.1268513,-119.1855785,Bakersfield,,CA,93311,SHELL PETROLEUM INC (51.8%); EXXON MOBIL CORP (48.2%),14990,W
2021,Aera Energy San Joaquin G and B,1012357,10000 Ming Avenue,35.33988,-119.11274,Bakersfield,KERN COUNTY,CA,93311,SHELL PETROLEUM INC (51.8%); EXXON MOBIL CORP (48.2%),58703,W
2021,Aera Energy Wier Gore Maxwell,1009944,25401 Highway 33,35.22925,-119.58286,Fellows,KERN COUNTY,CA,93224,SHELL PETROLEUM INC (51.8%); EXXON MOBIL CORP (48.2%),57458,C
2021,Aethon Energy Operating-230-Arkla Basin,1012509,12377 Merit Dr. Suite 1200,32.9208727,-96.7734911,Dallas,,TX,75251,AETHON UNITED BR LP (100%),216824,W
2021,Aethon Energy Operating-260-East Texas Basin,1012511,12377 Merit Dr. Suite 1200,32.91606,-96.773085,Dallas,,TX,75251,AETHON UNITED BR LP (100%),91225,W
2021,Aethon Energy Operating-530-Wind River Basin,1011895,,43.182208,-107.541229,Lysite,Fremont,WY,82642,AETHON UNITED BR LP (100%),100801,W
2021,Afton Generating Station,1006556,10100 WEST AFTON ROAD,32.1134,-106.848,LA MESA,Dona Ana,NM,88044,PNM RESOURCES INC (100%),281808,"C,D"
2021,Ag Processing Inc,1013891,4815 8th Avenue,45.474311,-98.416005,Aberdeen,BROWN COUNTY,SD,57401,AG PROCESSING INC A COOPERATIVE (100%),53428,C
2021,Ag Processing Inc,1002365,2753 Port Neal Circle,42.305176,-96.362271,Sergeant Bluff,WOODBURY COUNTY,IA,51054,AG PROCESSING INC A COOPERATIVE (100%),68650,C
2021,"Aggregate Industries SWR, Inc. - Utelite Plant",1010699,6375 W. Three Mile Canyon Road,40.71635,-111.44104,Coalville,SUMMIT COUNTY,UT,84017,LafargeHolcim Ltd (100%),38014,C
2021,Agropur,1012864,547 West Nez Perce,42.709612,-114.527559,Jeorme,JEROME COUNTY,ID,83338,AGROPUR INC (100%),32563,C
2021,Agropur Inc.,1012857,2915 County Road Ab,44.556959,-87.764596,Luxemburg,BROWN COUNTY,WI,54217,AGROPUR INC (100%),29205,C
2021,"Agropur, Inc.",1013643,408 Dakota Street,44.579444,-97.210556,Lake Norden,HAMLIN COUNTY,SD,57248,AGROPUR INC (100%),43813,C
2021,Agua Dulce,1013698,5704 FM 2826,27.747164,-97.818037,Robstown,,TX,78380,Enbridge (US) Inc (100%),286479,"C,W"
2021,Agua Dulce Compressor Station,1013907,"1001 LOUISIANA ST, SUITE 1000",29.76003,-95.36387,HOUSTON,HARRIS COUNTY,TX,77002,NEXTERA ENERGY INC (100%),72980,"C,W"
2021,Agua Fria Generating Station,1007206,7302 W NORTHERN AVE,33.5542,-112.2161,GLENDALE,Maricopa,AZ,85303,SALT RIVER PROJECT AGRICULTURAL IMPROVEMENT & POWER DISTRICT (100%),78217,"C,D"
2021,Agua Mansa Power,1000423,2040 AGUA MANSA ROAD,34.0414,-117.3603,COLTON,San Bernardino,CA,92324,CITY OF COLTON CA (100%),7743,D
2021,Ahlstrom Mosinee LLC,1007273,100 MAIN STREET,44.7887,-89.6943,MOSINEE,MARATHON COUNTY,WI,54455,AHLSTROM-MUNKSJO NORTH AMERICA SPECIALTY SOLUTIONS LLC (100%),199015,"AA,C,TT"
2021,Ahlstrom NA Specialty Solutions LLC,1002339,600 THILMANY RD,44.2829,-88.2518,KAUKAUNA,OUTAGAMIE COUNTY,WI,54130,AHLSTROM-MUNKSJO NORTH AMERICA SPECIALTY SOLUTIONS LLC (100%),402205,"AA,C,TT"
2021,Ahlstrom NA Specialty Solutions LLC,1005991,515 W DAVENPORT ST,45.6391,-89.421,RHINELANDER,ONEIDA COUNTY,WI,54501,AHLSTROM-MUNKSJO NORTH AMERICA SPECIALTY SOLUTIONS LLC (100%),196114,C
2021,Ahlstrom North America SPECIALTY SOLUTIONS,1004045,200 MAIN AVE,44.44737,-88.06851,DEPERE,BROWN COUNTY,WI,54115,AHLSTROM-MUNKSJO NORTH AMERICA SPECIALTY SOLUTIONS LLC (100%),52759,C
2021,Air Liquide Hydrogen Plant,1007253,8581 South Texas Road,48.467675,-122.553982,Anacortes,SKAGIT COUNTY,WA,98221,AMERICAN AIR LIQUIDE HOLDINGS INC (100%),68887,P
2021,Air Liquide Large Industries US - SMR,1006711,11400 Bay Area Blvd.,29.621469,-95.044198,Pasadena,HARRIS COUNTY,TX,77507,AMERICAN AIR LIQUIDE HOLDINGS INC (100%),437916,P
2021,Air Products - Geismar 3 HYCO,1013917,9150 Hwy 75,30.19641,-91.01745,Geismar,ASCENSION PARISH,LA,70734,AIR PRODUCTS & CHEMICALS INC (100%),270671,P
2021,Air Products Baytown 3 Facility,1013205,7714 West Bay Rd.,29.752,-94.909222,Baytown,CHAMBERS COUNTY,TX,77523,AIR PRODUCTS & CHEMICALS INC (100%),869627,P
2021,Air Products H2 SMR Plant at DCRC (Unit 37),1014231,4550 Wrangle Hill Road,39.580271,-75.631114,Delaware City,NEW CASTLE COUNTY,DE,19706,AIR PRODUCTS & CHEMICALS INC (100%),289538,P
2021,Air Products LLC - Corpus Christi,1004442,5401 Up River Road,27.810323,-97.458049,Corpus Christi,NUECES COUNTY,TX,78407,AIR PRODUCTS & CHEMICALS INC (100%),153773,P
2021,Air Products LLC - Pasadena SMR,1006943,1435 Highway 225,29.716011,-95.200573,Pasadena,HARRIS COUNTY,TX,77506,AIR PRODUCTS & CHEMICALS INC (100%),312547,P
2021,Air Products La Porte Facility,1003160,10202 Strang Rd,29.702,-95.071,La Porte,HARRIS COUNTY,TX,77571,AIR PRODUCTS & CHEMICALS INC (100%),110560,"C,D"
2021,Air Products Port Arthur Facility,1006402,1801 S Gulfway Dr within Valero Refinery,29.8662,-93.97117,Port Arthur,JEFFERSON COUNTY,TX,77640,AIR PRODUCTS & CHEMICALS INC (100%),2629539,"C,P,PP"
2021,Air Products West Coast Hydrogen - HP-1,1014323,3485 Pacheco Blvd.,38.0133042792257,-122.107964773591,Martinez,,CA,94553,AIR PRODUCTS & CHEMICALS INC (100%),473078,P
2021,Air Products West coast Hydrogen - HP-2,1014324,1915 Shell Avenue,38.017679580319,-122.11859261592,Martinez,,CA,94553,AIR PRODUCTS & CHEMICALS INC (100%),364781,P
2021,Air Products and Chemicals - Norco SMR,1011460,14885 Airline Drive,30.0169,-90.40874,Norco,ST. CHARLES PARISH,LA,70079,AIR PRODUCTS & CHEMICALS INC (100%),934629,P
2021,Air Products and Chemicals Inc. Luling SMR Facility,1010506,12501 River Road B,29.93061,-90.34702,Luling,ST. CHARLES PARISH,LA,70070,AIR PRODUCTS & CHEMICALS INC (100%),711367,P
2021,Air Products and Chemicals Inc./Detroit Hydrogen Facility Marathon Refinery,1010625,1025 Oakwood Blvd,42.28689,-83.15642,Detroit,WAYNE COUNTY,MI,48217,AIR PRODUCTS & CHEMICALS INC (100%),463317,P
2021,"Air Products and Chemicals, Inc. - BR SMR",1004586,2 Gulf States Utility Rd,30.488192,-91.164097,"Baton Rouge, La",EAST BATON ROUGE PARISH,LA,70805,AIR PRODUCTS & CHEMICALS INC (100%),738863,P
2021,"Air Products and Chemicals, Inc. - Joliet, IL H2 Plant",1005852,25915 S.E. Frontage Road (c/o ExxonMobil),41.417473,-88.216903,Channahon,WILL COUNTY,IL,60410,AIR PRODUCTS & CHEMICALS INC (100%),92081,P
2021,Airgas Therapeutics LLC - Scott Medical Products,1004725,6141 Easton Road Bldg. #3,40.384845,-75.146286,Plumsteadville,BUCKS COUNTY,PA,18949,AIRGAS INC (100%),3789,"L,OO"
2021,Aka Energy LLC Denver Basin Gathering & Boosting,1012439,13472 Weld County Road,40.2847036,-104.77616,Gilcrest,,CO,80623,SOUTHERN UTE INDIAN TRIBE (100%),53188,W
2021,Akutan Seafood Processing Facility,1010624,73 Salmon Way,54.132189,-165.786894,Akutan,,AK,99553,TRIDENT SEAFOODS CORP (100%),46017,C
2021,Alamance County Landfill,1005138,2701 Austin Quarter Rd.,35.9306,-79.2941,Graham,ALAMANCE COUNTY,NC,27253,COUNTY OF ALAMANCE (100%),127969,HH
2021,Alamo Gas Plant,1012815,1277 CR 3020,31.299475,-95.518054,Crockett,HOUSTON COUNTY,TX,75835,ENERGY TRANSFER LP (100%),127139,"C,W"
2021,Alamo San Antonio Cement Plant,1007208,6055 West Green Mountain Road,29.61214,-98.375075,San Antonio,BEXAR COUNTY,TX,78266,ALAMO CEMENT CO (100%),821901,H
2021,"Alaska Village Electric Cooperative, Inc.",1010937,4831 Eagle Street,61.17697,-149.87559,Anchorage,ANCHORAGE MUNICIPALITY,AK,99503,ALASKA VILLAGE ELECTRIC COOPERATIVE (100%),31017,C
2021,Albany,1013912,2600 W Oakridge Dr.,31.54899,-84.248426,Dougherty,DOUGHERTY COUNTY,GA,31721,Enbridge (US) Inc (100%),43336,"C,W"
2021,Albany Green Energy,1012844,508 Liberty Expressway SE,31.443122,-84.118617,Albany,DOUGHERTY COUNTY,GA,31705,ALBANY GREEN ENERGY LLC (100%),9656,D
2021,"Albert Einstein College of Medicine, Inc.",1009825,1300 Morris Park Ave,40.85112,-73.84435,Bronx,BRONX COUNTY,NY,10461,MONTEFIORE HEALTH SYSTEM INC (100%),29018,C
2021,Alcoa USA Corp.,1012517,1814 State Highway 131,44.965835,-74.8935,Massena,ST. LAWRENCE COUNTY,NY,13662,ALCOA CORP (100%),291897,"C,F"
2021,"Alcon Vision, LLC",1003448,6201 SOUTH FREEWAY,32.65733,-97.32096,FORT WORTH,TARRANT COUNTY,TX,76134,ALCON LABORATORIES INC (100%),31551,C
2021,Alderson Regional Landfill,1003411,201 SOUTH FIFTH STREET,34.894582,-95.686187,ALDERSON,PITTSBURG COUNTY,OK,74522,REPUBLIC SERVICES INC (100%),19150,HH
2021,Alex Ty Cooke Generating Station,1000955,3500 E SLATON HWY,33.5211,-101.7906,LUBBOCK,Lubbock,TX,79404,CITY OF LUBBOCK TEXAS (100%),3554,"C,D"
2021,Alexander City,1012943,452 Brick Plant Road,33.005502,-85.899101,Alexander City,TALLAPOOSA COUNTY,AL,35010,Enbridge (US) Inc (100%),148595,"C,W"
2021,"Alexander Orr, Jr. Water Treatment Plant",1012573,6800 SW 87TH AVE,25.708072,-80.336146,MIAMI,MIAMI-DADE COUNTY,FL,33173,MIAMI-DADE WATER & SEWER (100%),23080,C
2021,Algonquin Gas Transmission L.L.C.,1012420,915 North Eldridge Parkway,29.74013,-95.47309,Houston,,TX,77079,Enbridge (US) Inc (100%),5802,W
2021,"Algonquin Power Sanger, LLC",1005044,1125 Muscat Avenue,36.685049,-119.55225,Sanger,FRESNO COUNTY,CA,93657,ALGONQUIN POWER SANGER LLC (100%),66763,"C,D"
2021,"Algonquin Power Windsor Locks, LLC",1006409,26 CANAL BANK RD,41.9227,-72.6255,WINDSOR LOCKS,Hartford,CT,6096,ALGONQUIN POWER WINDSOR LOCKS LLC (100%),97460,"C,D"
2021,Allegany Generating Station,1001217,11537 ROUTE 19A,42.5083,-78.0661,Portageville,Allegany,NY,14536,ALLIANCE ENERGY GROUP LLC (100%),7320,"C,D"
2021,Allen,1002050,,34.866489,-96.352924,Allen,HUGHES COUNTY,OK,74825,ENERGY TRANSFER LP (100%),45461,"C,W"
2021,Allen,1000916,2574 PLANT RD,35.0742,-90.1439,MEMPHIS,Shelby,TN,38109,US GOVERNMENT (%),1486098,"C,D"
2021,Allen S King,1000691,1103 KING PLANT RD,45.03,-92.7786,OAK PARK HEIGHTS,Washington,MN,55003,XCEL ENERGY INC (100%),1410074,"C,D"
2021,Alliance Pipeline L.P. Albert Lea 25-A,1006841,85485 200th Street,43.64461,-93.15942,Albert Lea,FREEBORN COUNTY,MN,56007,ALLIANCE PIPELINE LP (50%); ENBRIDGE ENERGY MANAGEMENT LLC (50%),82559,"C,W"
2021,Alma No. 1 Mine,1009920,1421 Band Mill Hollow Rd,37.873822,-81.893448,Ethel,LOGAN COUNTY,WV,25076,ALPHA METALLURGICAL RESOURCES INC (100%),14275,FF
2021,Almond Power Plant,1007315,4500 CROWS LANDING ROAD,37.5739,-120.9854,MODESTO,Stanislaus,CA,95358,TURLOCK IRRIGATION DISTRICT EMPLOYEES ASSOC (100%),228460,D
2021,Alon Bakersfield Refining,1003689,6451 Rosedale Highway,35.3809,-119.07242,Bakersfield,KERN COUNTY,CA,93308,DELEK US HOLDINGS INC (100%),17355,C
2021,Alpaca Energy LLC,1013070,220 Romaine Ln.,41.663988,-76.808492,Canton,BRADFORD COUNTY,PA,17724,IMG MIDSTREAM LLC (100%),17526,C
2021,"Alpek Polyester USA, LLC Columbia Site",1009221,570 K AVENUE,33.866387,-81.012712,GASTON,CALHOUN COUNTY,SC,29053,DAK AMERICAS LLC (100%),91089,C
2021,"AlphaPET, Inc.",1005826,1301 Finley Island Road,34.6416,-87.05203,Decatur,MORGAN COUNTY,AL,35601,ALPHAPET INC (100%),43348,C
2021,Alpine High Pipeline,1012922,303 Veterans Airpark Lane Suite 2000,32.0344725722637,-102.088028818375,Midland,,TX,79705,APA CORP (100%),22,W
2021,Alpine Power Plant,1012152,7432 M-32,45.063748,-84.825348,Elmira,OTSEGO COUNTY,MI,49730,WOLVERINE POWER SUPPLY COOPERATIVE INC (100%),510685,"C,D"
2021,Alpont LLC,1013088,4112 Corduroy Rd,41.65919,-83.45071,Oregon,LUCAS COUNTY,OH,43616,ALPONT LLC (100%),56853,"C,X"
2021,Alsey Station,1000417,331 Campbell Road,39.5697,-90.4362,ALSEY,Scott,IL,62694,PRAIRIE POWER INC (100%),31532,"C,D"
2021,AltaGas Ripon Energy Inc.,1001625,944 South Stockton Ave.,37.7313,-121.1161,Ripon,SAN JOAQUIN COUNTY,CA,95366,ALTAGAS RIPON ENERGY INC (100%),2389,C
2021,"Altair Disposal Services, LLC",1007072,5464 Highway 71,29.569298,-96.464242,Altair,COLORADO COUNTY,TX,77412,CLEAN HARBORS INC (100%),34722,HH
2021,Altamont Landfill & Resource Recovery Facility,1007699,10840 Altamont Pass Road,37.723116,-121.682053,Livermore,ALAMEDA COUNTY,CA,94551,WASTE MANAGEMENT INC (100%),153519,"C,HH"
2021,Alto Compressor Station,1014295,2779 Hwy 135,32.3571275033521,-91.8611569467765,Rayville,,LA,71269,ENERGY TRANSFER LP (100%),28956,"C,W"
2021,"Alto ICP, LLC",1004861,1301 S FRONT ST,40.556501,-89.666235,PEKIN,TAZEWELL COUNTY,IL,61554,ALTO INGREDIENTS INC (100%),171013,"C,II,PP"
2021,"Alto Pekin, LLC",1000413,1300 SOUTH 2ND STREET,40.555,-89.6628,PEKIN,Tazewell,IL,61554,ALTO INGREDIENTS INC (100%),325262,"C,II,PP"
2021,Altus Gathering and Boosting,1013388,303 Veterans Airpark Lane Suite 2000,32.0344907625549,-102.087996631866,Midland,,TX,79705,APA CORP (100%),424635,W
2021,Amber Junction Compressor Station,1003209,1081 County Road 1280,35.160203,-97.857536,AMBER,GRADY COUNTY,OK,73004,ENERGY TRANSFER LP (100%),33016,"C,W"
2021,Ameren Illinois,1008026,300 Liberty Street,40.69045,-89.5924,Peoria,PEORIA COUNTY,IL,61602,AMEREN CORP (100%),76660,"NN,W"
2021,Ameren Illinois Electric,1010811,300 Liberty Street,40.69048,-89.59244,Peoria,PEORIA COUNTY,IL,61602,AMEREN CORP (100%),9965,DD
2021,Ameren Missouri,1004034,1901 Chouteau Avenue,38.620667,-90.211086,St. Louis,ST. LOUIS CITY,MO,63103,AMEREN CORP (100%),14891,"NN,W"
2021,Ameren Missouri Electric,1010812,1901 Chouteau Avenue,38.620785,-90.211635,St. Louis,ST. LOUIS CITY,MO,63103,AMEREN CORP (100%),5741,DD
2021,American Canyon Landfill,1004465,,38.1809,-122.281,American Canyon,NAPA COUNTY,CA,94503,NAPA VALLEGO WASTE MANAGEMENT AUTHORITY (100%),41860,HH
2021,American Crystal Sugar Company - Drayton,1006878,8152 Old Highway 44,48.593129,-97.173682,Drayton,PEMBINA COUNTY,ND,58225,AMERICAN CRYSTAL SUGAR CO (100%),342928,"C,S,TT"
2021,American Eagle,1010323,"200 Remington Coal Lane, Coal Fork Hollow",38.0908,-81.5291,Cabin Creek,KANAWHA COUNTY,WV,25035,BLACK HAWK MINING INC (100%),246935,FF
2021,American Soda LLC,1002889,400 COUNTY ROAD 85,41.5018,-109.758,GREEN RIVER,SWEETWATER COUNTY,WY,82935,SOLVAY HOLDING INC (80%); AGC AMERICA INC (20%),1056633,"C,CC"
2021,"American Sugar Refining, Inc. - Baltimore Refinery",1001859,1100 KEY HIGHWAY EAST,39.28023,-76.57112,BALTIMORE,BALTIMORE CITY,MD,21230,FANJUL CORP (100%),100769,C
2021,"American Sugar Refining, Inc. - Yonkers Refinery",1001861,1 Federal St.,40.92564,-73.90465,Yonkers,WESTCHESTER COUNTY,NY,10705,FANJUL CORP (100%),77898,C
2021,Ames,1005802,200 E 5TH ST,42.0247,-93.6069,AMES,Story,IA,50010,CITY OF AMES (100%),194446,D
2021,Amherst County Landfill,1013081,715 KENTMOOR FARM RD,37.47626,-79.03557,MADISON HEIGHTS,AMHERST COUNTY,VA,24521,COUNTY OF AMHERST (100%),30036,HH
2021,Amplify Energy Operating 260 East Texas Basin,1010839,"500 Dallas Street, Suite 1600",29.7555,-95.3616,Houston,,TX,77002,MEMORIAL RESOURCE DEVELOPMENT LLC (100%),107147,W
2021,"Amplify Energy Operating LLC 220 Gulf Coast Basin (LA, TX)",1009862,500 Dallas Street Suite 1600,29.7555,-95.3616,Houston,,TX,77002,MEMORIAL RESOURCE DEVELOPMENT LLC (100%),16362,W
2021,Amplify Energy Operation LLC 260 East Texas Basin GB,1012777,"500 Dallas Street, Suite 1600",29.75788,-95.37013,Houston,HARRIS COUNTY,TX,77002,MEMORIAL RESOURCE DEVELOPMENT LLC (100%),30471,W
2021,"Amplify Operating Oklahoma, LLC.",1010701,19051 Country Road 500,36.15307,-95.98943,Alva,,OK,73717,MIDSTATES PETROLEUM CO LLC (100%),7762,W
2021,Amsted Graphite Materials LLC,1005068,2698 PHILIPPI PIKE,39.25496,-80.29091,ANMOORE,HARRISON COUNTY,WV,26323,AMSTED INDUSTRIES INC (51%); GRAFTECH INTERNATIONAL LTD (49%),24741,C
2021,Anadarko,1000865,701 B NE 7TH ST,35.0847,-98.23,ANADARKO,Caddo,OK,73005,WESTERN FARMERS ELECTRIC COOPERATIVE (100%),256525,"C,D"
2021,Anadarko Basin,1009845,5221 N O'Connor Blvd. 11th Floor,29.73177,-95.43444,Irving,,TX,75039,SHERIDAN PRODUCTION CO LLC (100%),37885,W
2021,Anaheim Electric Distribution System,1010076,"201 S. Anaheim Blvd., MS-1101",33.83458,-117.91401,Anaheim,ORANGE COUNTY,CA,92805,CITY OF ANAHEIM (100%),1243,DD
2021,Analog Devices Inc,1009982,One Analog Way,45.502117,-122.824922,Willmington,WASHINGTON COUNTY,MA,1887,ANALOG DEVICES INC (100%),72837,"C,I"
2021,"Analog Devices, Inc./ Wilmington Manufacturing",1003759,"1 Analog Way, MS-424",42.5307,-71.14958,Wilmington,MIDDLESEX COUNTY,MA,1887,ANALOG DEVICES INC (100%),37745,"C,I"
2021,Anchor Glass Container - Plant 41,1002181,151 E. MCCANN'S BLVD.,42.120763,-76.813168,ELMIRA HEIGHTS,CHEMUNG COUNTY,NY,14903,ANCHOR GLASS CONTAINER CORP (100%),95571,"C,N"
2021,Anchor Glass Container Corporation - Plant 14,1004943,1044 BOOTH RD,32.586745,-83.591784,WARNER ROBINS,HOUSTON COUNTY,GA,31088,ANCHOR GLASS CONTAINER CORP (100%),53918,"C,N"
2021,Anchor Glass Container Corporation - Plant 15,1005074,601 E BOLLINGER RD,35.447778,-95.962778,HENRYETTA,OKMULGEE COUNTY,OK,74437,ANCHOR GLASS CONTAINER CORP (100%),96363,"C,N"
2021,Anchor Glass Container Corporation. - Plant 07,1004941,2121 HURON ST,30.349681,-81.712584,JACKSONVILLE,DUVAL COUNTY,FL,32254,ANCHOR GLASS CONTAINER CORP (100%),65763,"C,N"
2021,Anchor Glass Container Corporation. - Plant 12,1004942,4108 VALLEY INDUSTRIAL BLVD N,44.79875,-93.46714,SHAKOPEE,SCOTT COUNTY,MN,55379,ANCHOR GLASS CONTAINER CORP (100%),80913,"C,N"
2021,Anchor Glass Container. - Plant 42,1002178,200 W BELLEVIEW,39.125,-84.85545,LAWRENCEBURG,DEARBORN COUNTY,IN,47025,ANCHOR GLASS CONTAINER CORP (100%),40847,"C,N"
2021,Anclote Power Plant,1007246,1729 BAILLIES BLUFF ROAD,28.1844,-82.7887,HOLIDAY,Pasco,FL,34691,DUKE ENERGY CORP (100%),1263783,"C,D"
2021,Anderson Regional Landfill,1002813,203 Landfill Road,34.57226,-82.4603,Belton,ANDERSON COUNTY,SC,29627,WASTE CONNECTIONS US INC (100%),229978,HH
2021,Angus Anson,1001097,7100 EAST RICE ST,43.6033,-96.6369,SIOUX FALLS,Minnehaha,SD,57101,XCEL ENERGY INC (100%),110558,"C,D"
2021,Anheuser-Busch LLC. - St. Louis Brewery,1002037,One Busch Place,38.5961,-90.2128,St. Louis,ST. LOUIS CITY,MO,63118,ANHEUSER-BUSCH COS LLC (100%),70361,"C,PP"
2021,Anoka Municipal Regional Landfill,1011466,14730 NW Sunfish Blvd,45.23715,-93.42943,Ramsey,ANOKA COUNTY,MN,55303,STATE OF MINNESOTA (100%),31173,HH
2021,Anschutz Exploration Corporation - Powder River Basin,1013264,555 17th Street Suite 2400,43.73495,-105.404,Denver,,CO,80202,THE ANSCHUTZ CORP (100%),172336,W
2021,Anson County Waste Management Facility,1002236,375 Dozer Drive,34.969177,-80.165185,Polkton,ANSON COUNTY,NC,28135,WASTE CONNECTIONS US INC (100%),51909,HH
2021,Antelope Station,1006652,1454 CR 315,33.866995,-101.866362,ABERNATHY,HALE COUNTY,TX,79311,GOLDEN SPREAD ELECTRIC COOPERATIVE INC (100%),103904,C
2021,Antelope Valley,1001055,HWY 200,47.3714,-101.8344,BEULAH,Mercer,ND,58523,BASIN ELECTRIC POWER COOPERATIVE (100%),5904569,D
2021,Antero Midstream LLC- 160 Basin,1012714,1615 Wynkoop Street,39.752016,-105.000734,Denver,DENVER COUNTY,CO,80202,Antero Midstream LLC (100%),43899,W
2021,Antero Midstream LLC- 160A Basin,1012652,1615 Wynkoop Street,39.752016,-105.000734,Denver,DENVER COUNTY,CO,80202,Antero Midstream LLC (100%),1595572,W
2021,Antero Resources - 160 - Appalachian Basin (Utica),1010718,1615 Wynkoop Street,39.7541032,-105.0002242,Denver,,CO,80202,ANTERO RESOURCES CORP (100%),17003,W
2021,Antero Resources - 160A - Appalachian Basin (Eastern Overthurst Area),1010183,1615 Wynkoop Street,39.75231,-104.99906,Denver,,CO,80202,ANTERO RESOURCES CORP (100%),253085,W
2021,Apache Corporation - Gathering and Boosting Permian 430,1013392,"2000 Post Oak Blvd, Suite 100",29.7446,-95.4612,Houston,,TX,77056,APA CORP (100%),678144,W
2021,Apache Corporation - Permian Basin 430,1009391,"2000 Post Oak Blvd, Suite 100",32.03544,-102.08652,Houston,,TX,77056,APA CORP (100%),158445,W
2021,Apache Station,1005949,3525 N US HWY 191,32.0619,-109.8931,COCHISE,Cochise,AZ,85606,ARIZONA ELECTRIC POWER COOPERATIVE INC (100%),1692044,"C,D"
2021,Apex Generating Station,1000068,15555 APEX POWER PARKWAY,36.4178,-114.9622,LAS VEGAS,Clark,NV,89165,SOUTHERN CALIFORNIA PUBLIC POWER AUTHORITY (100%),1022419,"C,D"
2021,Appalachian Basin (Eastern Overthrust Area),1010721,10000 Energy Dr,29.93876,-95.3509,Spring,,TX,77389,SOUTHWESTERN ENERGY CO INC (100%),1069523,W
2021,Appalachian Basin (Eastern Overthrust Area) Gathering and Boosting,1012584,"1200 Summit Ave, Suite 320",32.74631,-97.3416,Fort Worth,TARRANT COUNTY,TX,76102,CRESTWOOD EQUITY PARTNERS LP (100%),201901,W
2021,Appalachian Basin - AAPG Province 160A,1008937,"33 West Third Street, Suite 300",41.241182,-77.0010648,Williamsport,,PA,17701,ARD OPERATING LLC (100%),109215,W
2021,Appalachian Basin Gathering & Boosting - AAPG Province 160A,1012241,"33 West Third Street, Suite 300",30.16115,-95.45389,Williamsport,,PA,17701,ARD OPERATING LLC (100%),136670,W
2021,Arapaho,1004686,,35.7481,-99.202,BUTLER,CUSTER COUNTY,OK,73625,MPLX LP (100%),25606,"C,W"
2021,Arapahoe Combustion Turbine Facility,1001360,2601 SOUTH PLATTE RIVER ROAD,39.6692,-105.0018,DENVER,Denver,CO,80223,SOUTHWEST GENERATION OPERATING CO LLC (100%),99498,"C,D"
2021,Arauco North America,1013151,5851 Arauco Rd,44.5985,-84.6865,Grayling,CRAWFORD COUNTY,MI,49738,ARAUCO NORTH AMERICA INC (100%),72658,C
2021,"Arauco North America, Inc.",1003156,1275 WILLAMETTE ROAD,34.383511,-92.725445,MALVERN,HOT SPRING COUNTY,AR,72104,ARAUCO NORTH AMERICA INC (100%),65509,C
2021,ArcelorMittal Texas HBI,1012625,2800 Kay Bailey Hutchison Road,27.888611,-97.277778,Portland,SAN PATRICIO COUNTY,TX,78374,VOESTALPINE TEXAS LLC (100%),738882,"C,Q"
2021,Archer Daniels Midland,1003476,400 E. Holt St.,39.169552,-91.879288,Mexico,AUDRAIN COUNTY,MO,65265,ARCHER DANIELS MIDLAND CO (100%),29762,C
2021,Archer Daniels Midland Co.,1005661,4666 FARIES PARKWAY,39.8675,-88.885,DECATUR,Macon,IL,62521,ARCHER DANIELS MIDLAND CO (100%),4207231,"C,II,PP,RR (RPT)"
2021,"Archer Daniels Midland Co. - Enderlin, ND",1013749,5525 136th Avenue SE,46.6137,-97.5769,Enderlin,RANSOM COUNTY,ND,58027,ARCHER DANIELS MIDLAND CO (100%),28257,"C,II"
2021,Arconic US LLC,1002483,45 COUNTY ROUTE 42,44.950425,-74.893685,MASSENA,ST. LAWRENCE COUNTY,NY,13662,ARCONIC INC (100%),7987,"C,TT"
2021,Arconic US LLC,1007937,4879 STATE STREET,41.53115,-90.4682,BETTENDORF,SCOTT COUNTY,IA,52722,ARCONIC CORP (100%),255541,C
2021,Arconic US LLC,1003379,1480 Manheim Pike,40.063333,-76.320556,Lancaster,LANCASTER COUNTY,PA,17601,ARCONIC CORP (100%),109531,C
2021,"Arcosa LW BR, LLC Livingston DIV",1005835,201 Industrial St. SOUTH INDUSTRIAL PARK,32.56486,-88.19967,LIVINGSTON,SUMTER COUNTY,AL,35470,ARCOSA INC (100%),106234,C
2021,Arcosa Lightweight - Brooks Plant,1002800,1797 CORAL RIDGE RD.,38.0381,-85.7153,Shephersville,BULLITT COUNTY,KY,40165,ARCOSA INC (100%),48648,C
2021,Arcosa Lightweight - Frazier Park,1012548,17410 E Lockwood Valley Rd,34.7666,-119.0447,Frazier Park,VENTURA COUNTY,CA,93225,ARCOSA INC (100%),20957,C
2021,Arcosa Lightweight Indiana,1013060,6618 N Tidewater Rd,39.52537,-86.37786,Mooresville,MORGAN COUNTY,IN,46158,ARCOSA INC (100%),28930,C
2021,Ardagh Glass Inc. (Bridgeton),1002504,443 S EAST AVE,39.409,-75.21958,BRIDGETON,CUMBERLAND COUNTY,NJ,8302,ARDAGH GLASS INC (100%),57000,"C,N"
2021,Ardagh Glass Inc. (Burlington),1005977,815 SOUTH MCHENRY STREET,42.6626,-88.2906,BURLINGTON,RACINE COUNTY,WI,53105,ARDAGH GLASS INC (100%),76372,"C,N"
2021,Ardagh Glass Inc. (Dolton),1000105,13850 COTTAGE GROVE AVENUE,41.642117,-87.599663,DOLTON,COOK COUNTY,IL,60419,ARDAGH GLASS INC (100%),87615,"C,N"
2021,Ardagh Glass Inc. (Dunkirk),1000002,524 E. CENTER STREET,40.371053,-85.198134,DUNKIRK,JAY COUNTY,IN,47336,ARDAGH GLASS INC (100%),116831,"C,N"
2021,Ardagh Glass Inc. (Henderson),1000003,620 Facet Road,36.291066,-78.391883,Henderson,VANCE COUNTY,NC,27537,ARDAGH GLASS INC (100%),79993,"C,N"
2021,Ardagh Glass Inc. (Madera),1000005,24441 AVENUE 12 & ROAD 24 1/2,36.92375,-120.10151,MADERA,MADERA COUNTY,CA,93637,ARDAGH GLASS INC (100%),78061,"C,N"
2021,Ardagh Glass Inc. (Pevely),1000028,1500 Ardagh Group Drive,38.29372,-90.39969,PEVELY,JEFFERSON COUNTY,MO,63070,ARDAGH GLASS INC (100%),82395,"C,N"
2021,Ardagh Glass Inc. (Port Allegany),1000020,ONE GLASS PLACE,41.81787,-78.28699,PORT ALLEGANY,MCKEAN COUNTY,PA,16743,ARDAGH GLASS INC (100%),65442,"C,N"
2021,Ardagh Glass Inc. (Ruston),1000021,4241 HIGHWAY 563,32.543572,-92.766871,SIMSBORO,LINCOLN PARISH,LA,71275,ARDAGH GLASS INC (100%),42822,"C,N"
2021,Ardagh Glass Inc. (Sapulpa),1000023,1000 NORTH MISSION STREET,36.009924,-96.099233,SAPULPA,CREEK COUNTY,OK,74066,ARDAGH GLASS INC (100%),96370,"C,N"
2021,Ardagh Glass Inc. (Seattle),1000024,5801 EAST MARGINAL WAY SOUTH,47.551767,-122.337152,SEATTLE,KING COUNTY,WA,98134,ARDAGH GLASS INC (100%),57881,"C,N"
2021,Ardagh Glass Inc. (Wilson),1000026,2201 FIRESTONE PARKWAY,35.7602,-77.8826,WILSON,WILSON COUNTY,NC,27893,ARDAGH GLASS INC (100%),92756,"C,N"
2021,Ardagh Glass Inc. (Winchester),1006060,603 E NORTH ST,40.173694,-84.971694,WINCHESTER,RANDOLPH COUNTY,IN,47394,ARDAGH GLASS INC (100%),103113,"C,N"
2021,Ardagh Glass Packaging Inc. (Houston),1003258,4202 FIDELITY STREET,29.76151,-95.25591,HOUSTON,HARRIS COUNTY,TX,77029,Ardagh Glass Packaging Inc (100%),60548,"C,N"
2021,Area 51 CGP Facility,1008677,5911 County Road 136,28.651637,-98.000845,Pawnee,BEE COUNTY,TX,78145,ENTERPRISE PRODUCTS PARTNERS LP (100%),34012,"C,W"
2021,Area 71 CGP Facility,1008680,5911 County Road 136,28.651637,-98.000845,Pawnee,BEE COUNTY,TX,78145,ENTERPRISE PRODUCTS PARTNERS LP (100%),12314,"C,W"
2021,Area 71B CGP Facility,1012986,,28.9579,-97.6946,Nordheim,DEWITT COUNTY,TX,78141,ENTERPRISE PRODUCTS PARTNERS LP (100%),67593,"C,W"
2021,Area 72 CGP Facility,1008681,5911 County Road 136,28.651637,-98.000845,5911 County Road 136,BEE COUNTY,TX,78145,ENTERPRISE PRODUCTS PARTNERS LP (100%),109999,"C,W"
2021,Arecibo Landfill,1005158,"Carr. PR-682 Interior, Sector Garrochales, Bo. Factor II",18.419506,-66.736735,Arecibo,ARECIBO MUNICIPIO,PR,612,MUNICIPALITY OF ARECIBO (100%),112354,"C,HH"
2021,Argos Cement LLC,1005458,4000 NORTHWEST COUNTY ROAD 235,29.690671,-82.582134,NEWBERRY,ALACHUA COUNTY,FL,32669,ARGOS USA LLC (100%),1065706,H
2021,Argos Cement LLC - Harleyville Plant,1002750,463 JUDGE STREET,33.226205,-80.452832,HARLEYVILLE,DORCHESTER COUNTY,SC,29448,ARGOS USA LLC (100%),605607,"C,H"
2021,Arizona Public Service Company,1009780,2124 W. Cheryl Ave.,33.578425,-112.104408,Phoenix,MARICOPA COUNTY,AZ,85021,PINNACLE WEST CAPITAL CORP (85.357%); SALT RIVER PROJECT AGRICULTURAL IMPROVEMENT & POWER DISTRICT (7.408%); UNS ENERGY CORP (1.739%); LOS ANGELES DEPARTMENT OF WATER & POWER (1.285%); SAN DIEGO GAS & ELECTRIC (1.142%); PNM RESOURCES INC (1.03%); THE NAVAJO NATION TRIBAL GOVERNMENT (1.03%),4861,DD
2021,Arkansas Loop & Simpson Treating Plants,1001760,,37.0532,-107.7855,DURANGO,LA PLATA COUNTY,CO,81303,SOUTHERN UTE INDIAN TRIBE (51%); KINDER MORGAN INC (49%),283412,"C,W"
2021,Arkoma,1004404,,34.63339,-96.17768,Coalgate,COAL COUNTY,OK,74538,MPLX LP (100%),30606,"C,W"
2021,Arlington Compressor Station,1002772,1670 State Highway 13,41.60628,-106.20608,McFadden,CARBON COUNTY,WY,82083,TALLGRASS DEVELOPMENT LP (75%); PHILLIPS 66 (25%),840,"C,W"
2021,Arlington Landfill,1002645,800 Mosier Valley Road,32.80776,-97.10376,Euless,TARRANT COUNTY,TX,76040,CITY OF ARLINGTON (100%),88518,"C,HH"
2021,Arlington Valley Energy Facility,1001399,39027 W ELLIOT ROAD,33.3417,-112.8897,ARLINGTON,Maricopa,AZ,85322,Arlington Valley LLC (100%),938537,"C,D"
2021,Armagh Compressor Station,1000315,862 HORSE THIEF ROAD,40.4319,-79.085,NEW FLORENCE,Indiana,PA,15944,Enbridge (US) Inc (100%),39929,"C,W"
2021,Armstrong Gas Plant,1004087,13072 FM 682,29.133889,-97.039161,Yoakum,DEWITT COUNTY,TX,77995,ENTERPRISE PRODUCTS PARTNERS LP (100%),18334,"C,NN,W"
2021,"Armstrong Power, LLC",1005709,2313 STATE ROUTE 156,40.6383,-79.3503,SHELOCTA,Armstrong,PA,15774,"LS Power Development, LLC (100%)",618642,D
2021,Armstrong World Industries Inc,1006883,4520 Broadway,32.773497,-83.6516,Macon,BIBB COUNTY,GA,31206,ARMSTRONG WORLD INDUSTRIES INC (100%),88655,C
2021,Arnold Engineering Development Center,1003846,"100 Kindel Drive, Suite B-327",35.383056,-86.043611,Arnold AFB,COFFEE COUNTY,TN,37389,US GOVERNMENT (%),29101,C
2021,Arrowhead Gas Plant,1012906,2387 Hwy 1450,31.2403011,-103.065333,Coyanosa,,TX,79730,ENERGY TRANSFER LP (100%),86600,"C,W"
2021,Arrowhead Landfill,1001297,622 Tayloe Road,32.435714,-87.437716,Uniontown,PERRY COUNTY,AL,36786,PERRY COUNTY ASSOCIATES LLC (100%),45871,HH
2021,Arroyo Grande Production Facility,1002978,1821 PRICE CANYON ROAD,35.1814,-120.61965,SAN LUIS OBISPO,SAN LUIS OBISPO COUNTY,CA,93401,SENTINEL PEAK RESOURCES LLC (100%),68364,W
2021,Arsenal Hill Power Plant,1001609,520 NORTH ALLEN,32.5181,-93.7611,SHREVEPORT,Caddo,LA,71101,AMERICAN ELECTRIC POWER CO INC (100%),1115589,D
2021,Arsenal Midstream LLC 160A Appalachian Basin GB,1012861,"6031 Wallace Road Ext., Suite 300",40.63381,-80.0646,Wexford,ALLEGHENY COUNTY,PA,15090,ARSENAL ENERGY HOLDINGS LLC (100%),35632,W
2021,"Arsenal Resources, LLC 160A Appalachian Basin",1008795,"6031 Wallace Road Ext, Suite 300",39.301158,-80.209822,Wexford,HARRISON COUNTY,PA,15090,ARSENAL ENERGY HOLDINGS LLC (100%),15727,W
2021,Arthur Kill,1000759,4401 VICTORY BLVD,40.5915,-74.2027,Staten Island,Richmond,NY,10314,ARCLIGHT CAPITAL HOLDINGS LLC (100%),528558,"C,D"
2021,Arvah B Hopkins,1007189,1125 GEDDIE ROAD,30.4522,-84.4,TALLAHASSEE,Leon,FL,32304,CITY OF TALLAHASSEE (100%),618771,"C,D"
2021,Ascend (Decatur Plant),1000158,1050 CHEMSTRAND AVENUE,34.6339,-87.0244,DECATUR,Morgan,AL,35601,Ascend Performance Materials Holdings Inc (100%),548900,"C,P,PP"
2021,Ascend Performance Materials LLC,1004962,3000 Old Chemstrand Road,30.596678,-87.251977,Cantonment,ESCAMBIA COUNTY,FL,32533,Ascend Performance Materials Holdings Inc (100%),8564795,"C,E,P,TT,V"
2021,Ascent Resources - Utica (160),1011393,PO Box 13678,35.565478,-97.518049,Oklahoma City,,OK,73113,ASCENT RESOURCES OPERATING LLC (100%),79663,W
2021,Ascent Resources - Utica (160a),1011454,PO Box 13678,35.565478,-97.518049,Oklahoma City,,OK,73113,ASCENT RESOURCES OPERATING LLC (100%),301541,W
2021,Ash Grove Cement Company-LEAMINGTON,1002530,19090 West Highway 132,39.508327,-112.262246,Nephi,,UT,84648,CRH AMERICAS INC (100%),574942,"C,H"
2021,Asheville Steam Electric Plant,1007180,200 CP&L DRIVE,35.4714,-82.5431,ARDEN,Buncombe,NC,28704,DUKE ENERGY CORP (100%),1448571,"C,D"
2021,Asphalt Hawaii Kalaeloa Asphalt Terminal,1004873,91-550 Malakole Street,21.323561,-158.108519,Kapolei,HONOLULU COUNTY,HI,96707,ALEXANDER & BALDWIN INC (70%); JAS W GLOVER LTD (30%),838,"C,MM"
2021,Astoria Gas Turbine Power,1000132,31 01 20TH AVE,40.7864,-73.9133,ASTORIA,Queens,NY,11105,NRG ENERGY INC (100%),29719,"C,D"
2021,Astoria Generating Station,1007053,18-01 20TH AVE,40.7869,-73.9122,ASTORIA,Queens,NY,11105,ARCLIGHT CAPITAL HOLDINGS LLC (100%),460292,"C,D"
2021,Astoria Station,1014070,19333 482 Ave,44.580121408708,-96.5614106003509,Astoria,,SD,57213,OTTER TAIL CORP (100%),145832,"C,D"
2021,Athens,1002577,9375 Harner Rd.,39.24099,-82.12427,Athens,ATHENS COUNTY,OH,45701,Enbridge (US) Inc (100%),78871,"C,W"
2021,Athens Generating Company,1000101,9300 U S HIGHWAY 9W,42.2728,-73.8492,ATHENS,Greene,NY,12015,"New Athens Generating Co, LLC (100%)",694688,D
2021,"Athens-Hocking Landfill, Inc.",1011217,17970 Diamond Brick Road (Old U.S. Route 33),39.45634,-82.279142,Nelsonville,ATHENS COUNTY,OH,45764,RUMPKE CONSOLIDATED COS INC (100%),125374,HH
2021,Atkinson County - S.R. 50 MSW Landfill,1003450,64 Arthur Davis Jr. Drive,31.33676,-83.03276,Willachoochee,ATKINSON COUNTY,GA,31650,SOLID WASTE MANAGEMENT AUTHORITY OF ATKINSON COUNTY (100%),48573,HH
2021,Atlanta Gas Light Company,1007872,Ten Peachtree Place,33.797114,-84.380489,Atlanta,FULTON COUNTY,GA,30309,THE SOUTHERN CO (100%),200093,"NN,W"
2021,"Atlantis, MMS Platform ID 02481, Complex ID 1223-1",1004233,,27.19545638,-90.02698449,Offshore,,LA,0,BP AMERICA INC (56%); BHP MINERALS INTERNATIONAL LLC (44%),229317,"C,W"
2021,Atlas Sand Kermit,1014281,15456 FM 874,31.9459903835627,-103.009422789116,Kermit,,TX,79745,Atlas Sand (100%),54852,C
2021,Atlas Sand Monahans,1014278,3350 Hwy 18 N,31.8113034146526,-103.073080593196,Kermit,,TX,79745,"Atlas Sand CO, LLC (100%)",49865,C
2021,Atmos Energy Corporation - APT Howard,1006523,5430 LBJ Freeway,32.92548,-96.81613,Dallas,DALLAS COUNTY,TX,75240,ATMOS ENERGY CORP (100%),66800,"C,W"
2021,Atmos Energy Corporation - Colorado,1004794,5430 LBJ Freeway,32.925488,-96.816137,Dallas,DALLAS COUNTY,TX,75240,ATMOS ENERGY CORP (100%),25689,"NN,W"
2021,Atmos Energy Corporation - Kansas,1001388,5430 LBJ Freeway,32.925488,-96.816137,Dallas,DALLAS COUNTY,TX,75240,ATMOS ENERGY CORP (100%),23303,"NN,W"
2021,Atmos Energy Corporation - Kentucky,1001389,5430 LBJ Freeway,32.92548,-96.81613,Dallas,DALLAS COUNTY,TX,75240,ATMOS ENERGY CORP (100%),24440,"NN,W"
2021,Atmos Energy Corporation - Louisiana,1001390,5430 LBJ Freeway,32.92548,-96.81613,Dallas,DALLAS COUNTY,TX,75240,ATMOS ENERGY CORP (100%),50292,"NN,W"
2021,Atmos Energy Corporation - Mississippi,1001391,5430 LBJ Freeway,32.925488,-96.816137,Dallas,DALLAS COUNTY,TX,75240,ATMOS ENERGY CORP (100%),56268,"NN,W"
2021,Atmos Energy Corporation - Tennessee,1006887,5430 LBJ Freeway,32.92548,-96.81613,Dallas,DALLAS COUNTY,TX,75240,ATMOS ENERGY CORP (100%),17833,"NN,W"
2021,Atmos Energy Corporation - Texas,1001398,5430 LBJ Freeway,32.925488,-96.816137,Dallas,DALLAS COUNTY,TX,75240,ATMOS ENERGY CORP (100%),397239,"NN,W"
2021,Atmos Energy Corporation- Virginia,1001402,5430 LBJ Freeway,32.925488,-96.816137,Dallas,DALLAS COUNTY,TX,75240,ATMOS ENERGY CORP (100%),2654,"NN,W"
2021,Atmos Pipeline Texas,1013856,5430 LBJ Freeway,32.92548,-96.81613,Dallas,DALLAS COUNTY,TX,75240,ATMOS ENERGY CORP (100%),27231,W
2021,Attala Generating Plant,1007247,2500 ATTALA ROAD 4130,33.0142,-89.6758,SALLIS,Attala,MS,39160,ENTERGY CORP (100%),955897,"C,D"
2021,Aucilla Area Solid Waste Facility,1005810,1313 SW Greenville Hills Rd.,30.4607,-83.6085,Greenville,MADISON COUNTY,FL,32331,AUCILLA AREA SOLID WASTE ADMINISTRATION (100%),55113,HH
2021,Audrain Power Plant,1001379,40897 HIGHWAY P,39.3092,-91.5369,VANDALIA,Audrain,MO,63382,AMEREN CORP (100%),27201,D
2021,"Auria Albemarle, LLC",1002822,313 BETHANY ROAD,35.3982,-80.20477,ALBEMARLE,STANLY COUNTY,NC,28001,AURIA SOLUTIONS USA INC (100%),201,C
2021,Auriga Polymers Inc.,1001780,1550 Dewberry Road,35.027817,-81.87896,SPARTANBURG,SPARTANBURG COUNTY,SC,29307,INDORAMA VENTURES USA HOLDINGS LP (100%),100234,C
2021,Aurora Ethanol Complex,1010658,1205 South O Road,40.86801,-98.0364,Aurora,HAMILTON COUNTY,NE,68818,AURORA COOPERATIVE ETHANOL (100%),137952,C
2021,Aurora Generating Station,1001397,2909 NORTH EOLA ROAD,41.8151,-88.2265,AURORA,Dupage,IL,60504,"LS Power Development, LLC (100%)",422404,"C,D"
2021,Aurubis Buffalo Inc.,1013293,70 Sayre Street,42.94765,-78.89284,Buffalo,ERIE COUNTY,NY,14207,AURUBIS BUFFALO INC (100%),31911,C
2021,Australis TMS Inc. 210 Mid-Gulf Coast Basin,1013091,"333 Clay Street, Suite 3680",29.752554,-95.3704009,Houston,,TX,77002,AUSTRALIS TMS INC (100%),30917,W
2021,Aux Sable Midstream - Palermo Conditioning Plant,1008835,1638 74th Ave. NW,48.301166,-102.220966,Palermo,MOUNTRAIL COUNTY,ND,58769,AUX SABLE MIDSTREAM LLC (100%),10338,"C,NN,W"
2021,Avago Technologies,1008734,4380 Ziegler Road,40.5236,-105.02021,Fort Collins,LARIMER COUNTY,CO,80525,BROADCOM INC (100%),125323,"C,I"
2021,Avient Protective Materials,1013954,5750 Martin Luther King Jr. Highway,35.65739,-77.35402,Greenville,PITT COUNTY,NC,27834,DSM PHARMACEUTICALS INC (100%),10118,C
2021,Avista Corporation,1010805,1411 E.Mission,47.66,-117.39,Spokane,SPOKANE COUNTY,WA,99220,AVISTA CORP (100%),10363,DD
2021,Avista Corporation-WA,1003050,1411 E. Mission,47.66,-117.39,Spokane,SPOKANE COUNTY,WA,99220,AVISTA CORP (100%),16108,"NN,W"
2021,Avon Lake Power Plant,1000843,33570,41.5042,-82.05,AVON LAKE,Lorain,OH,44012,GENON ENERGY INC (100%),775835,"C,D"
2021,Aztalan Bio LLC,1004608,W5289 Joe Turley Way,43.035135,-88.791556,Johnson Creek,JEFFERSON COUNTY,WI,53038,VALERO ENERGY CORP (100%),1631,"C,PP"
2021,"B BRAUN MEDICAL, INC",1005872,2525 MCGAW AVE,33.6878,-117.8379,IRVINE,ORANGE COUNTY,CA,92614,B BRAUN MEDICAL US (100%),54744,C
2021,"BA A 133 B, C-AUX, E (Complex ID # 10249)",1011597,,27.835135,-96.013057,Offshore,,TX,0,FIELDWOOD HOLDINGS LLC (100%),251,"C,W"
2021,BACKRIDGE LANDFILL,1003412,26265 STATE HIGHWAY B,40.0161,-91.5217,LA GRANGE,LEWIS COUNTY,MO,63448,REPUBLIC SERVICES INC (100%),20861,HH
2021,BADAMI DEVELOPMENT FACILITY,1007807,"70.151006 N, -147.097267 W",70.150997,-147.097369,Badami Unit,,AK,99734,SAVANT ALASKA LLC (100%),25119,W
2021,BADGER CREEK LIMITED,1002728,34759 LENCIONI AVE,35.44735,-119.08652,BAKERSFIELD,KERN COUNTY,CA,93308,BADGER CREEK LTD (100%),7687,D
2021,BADGER STATE ETHANOL,1002032,820 West 17th Street,42.5949,-89.66691,MONROE,GREEN COUNTY,WI,53566,BADGER STATE ETHANOL LLC (100%),107382,"C,II,PP"
2021,BADLANDS SANITARY LANDFILL,1000046,31125 IRONWOOD AVENUE,33.9541,-117.1168,MORENO VALLEY,RIVERSIDE COUNTY,CA,92555,COUNTY OF RIVERSIDE (100%),88809,HH
2021,BAKERSFIELD METROPOLITAN SANITARY LANDFILL,1002896,2951 Neumarkel Road,35.422469,-118.708138,Edison,KERN COUNTY,CA,93220,COUNTY OF KERN (100%),48484,HH
2021,BALDWIN COUNTY SOLID WASTE,1007875,15093 LANDFILL DRIVE,30.443309,-87.774276,SUMMERDALE,BALDWIN COUNTY,AL,36580,BALDWIN COUNTY SOLID WASTE (100%),257336,HH
2021,BALL STATE UNIVERSITY,1004171,2000 W UNIVERSITY AVE,40.19765,-85.40893,MUNCIE,DELAWARE COUNTY,IN,47306,STATE OF INDIANA (100%),22714,C
2021,"BARGATH, INC.- PARACHUTE",1002943,,39.487297,-108.111356,"PARACHUTE, 3.4 MI NW OF",GARFIELD COUNTY,CO,81635,THE WILLIAMS COS INC (100%),248415,"C,PP,W"
2021,BARROW UTILITIES & ELECTRIC,1005395,1295 AGVIK STREET,71.292071,-156.77847,BARROW,NORTH SLOPE BOROUGH,AK,99723,BARROW UTILITIES & ELECTRIC COOPERATIVE INC (100%),43017,C
2021,BARSTOW SANITARY LANDFILL,1004406,"32553 BARSTOW ROAD, 5 MILES S OF BARSTOW",34.837222,-117.017655,BARSTOW,SAN BERNARDINO COUNTY,CA,92311,COUNTY OF SAN BERNARDINO SOLID WASTE MANAGEMENT DIV (100%),43847,"C,HH"
2021,BARTHOLOMEW CO LANDFILL,1002168,11110 E 25th Street,39.224811,-85.800619,COLUMBUS,BARTHOLOMEW COUNTY,IN,47201,COUNTY OF BARTHOLOMEW (100%),19098,HH
2021,BARTHOLOMEW COUNTY LANDFILL II,1002167,811 E CR 450 S,39.134761,-85.93343,COLUMBUS,BARTHOLOMEW COUNTY,IN,47201,COUNTY OF BARTHOLOMEW (100%),74357,"C,HH"
2021,BARTON COUNTY SANITARY LANDFILL,1002401,350 NE 30 ROAD,38.4082,-98.7054,GREAT BEND,BARTON COUNTY,KS,67530,BARTON COUNTY (100%),36826,"C,HH"
2021,BASF BEAUMONT AGRO PLANT,1005850,14385 WEST PORT ARTHUR ROAD,29.971389,-94.053333,BEAUMONT,JEFFERSON COUNTY,TX,77705,BASF CORP (100%),56133,C
2021,BASF CORP - GEISMAR SITE,1004208,8404 RIVER ROAD HIGHWAY 75,30.1979,-91.0035,GEISMAR,ASCENSION PARISH,LA,70734,BASF CORP (100%),887918,"C,X"
2021,BASF CORP - PASADENA PLANT,1002613,4403 LA PORTE FWY,29.731639,-95.152083,PASADENA,HARRIS COUNTY,TX,77501,BASF CORP (100%),51448,C
2021,BASF CORP ATTAPULGUS OPS,1007885,141 ENGELHARD RD,30.738055,-84.49394,ATTAPULGUS,DECATUR COUNTY,GA,39815,BASF CORP (100%),98110,C
2021,BASF CORP SAVANNAH OPERATIONS,1002622,1800 EAST PRESIDENT STREET,32.078611,-81.054444,SAVANNAH,CHATHAM COUNTY,GA,31404,BASF CORP (100%),42451,C
2021,BASF CORPORATION,1003551,1379 CIBA RD,31.2789,-88.0043,MC INTOSH,WASHINGTON COUNTY,AL,36553,BASF CORP (100%),67802,C
2021,BASF CORPORATION,1000017,3150 HWY JJ,39.834118,-91.436791,PALMYRA,MARION COUNTY,MO,63461,BASF CORP (100%),139758,C
2021,BASF Corporation,1013958,1609 Biddle Avenue,42.219195,-83.14674,Wyandotte,WAYNE COUNTY,MI,48192,BASF CORP (100%),35763,C
2021,BASF Corporation,1006829,Highway 18 Spur,32.890393,-83.344945,Gordon,WILKINSON COUNTY,GA,31031,BASF CORP (100%),52670,C
2021,BASF Corporation,1003325,1520 Dedrick Road,32.852745,-83.232553,McIntyre,WILKINSON COUNTY,GA,31054,BASF CORP (100%),178001,C
2021,BASF FREEPORT SITE,1001934,602 COPPER ROAD,29.002075,-95.399777,FREEPORT,BRAZORIA COUNTY,TX,77541,BASF CORP (100%),607042,C
2021,BASF TOTALEnergies PETROCHEMICALS LLC,1006543,7501 GULFWAY DR,29.951649,-93.887272,PORT ARTHUR,JEFFERSON COUNTY,TX,77642,BASF CORP (100%),2061018,"C,X"
2021,BASIC AMERICAN FOODS,1006355,434 SOUTH EMERSON AVENUE,43.374351,-112.127595,SHELLEY,BINGHAM COUNTY,ID,83274,BASIC AMERICAN INC (100%),25352,C
2021,BASIC AMERICAN FOODS,1004740,415 W. COLLINS RD.,43.201211,-112.382433,BLACKFOOT,BINGHAM COUNTY,ID,83221,BASIC AMERICAN INC (100%),64684,C
2021,BASIN 305 G&B,1012450,1165 ELKVIEW DRIVE,45.01368,-84.67351,GAYLORD,OTSEGO COUNTY,MI,49735,MAVERICK NATURAL RESOURCES LLC (100%),7962,W
2021,BASIN 305 PRODUCTION,1010320,1165 ELKVIEW DRIVE,45.01368,-84.67351,GAYLORD,,MI,49735,MAVERICK NATURAL RESOURCES LLC (100%),8478,W
2021,BATTALION OIL CORP,1010372,"820 Gessner Rd, Ste 1100",29.777349019319,-95.543219994541,HOUSTON,,TX,77024,BATTALION OIL CORP (100%),115071,W
2021,BATTLE CREEK LANDFILL,1002639,219 LANDFILL DRIVE,38.622463,-78.586795,LURAY,PAGE COUNTY,VA,22835,PAGE COUNTY (100%),60800,"C,HH"
2021,BAYER CROPSCIENCE,1001918,8400 HAWTHORN ROAD,39.122417,-94.474833,KANSAS CITY,JACKSON COUNTY,MO,64120,BAYER US HOLDING LP (100%),42468,C
2021,BAYTOWN LANDFILL,1007684,4791 TRI CITY BEACH RD,29.680398,-94.930647,BAYTOWN,HARRIS COUNTY,TX,77520,WASTE MANAGEMENT INC (100%),45113,HH
2021,BAYVIEW LANDFILL,1006417,"10800 South State Road 68, 764965",39.95249,-111.95619,Elberta,UTAH COUNTY,UT,84626,NORTHERN UTAH ENVIRONMENTAL RESOURCE AGENCY (100%),97147,"C,HH"
2021,BBOG Gulf Coast Basin #220,1011534,"18615 Tuscany Stone, STE 300",29.61182,-98.49029,San Antonio,,TX,78258,BLACKBRUSH O & G LLC (100%),65601,W
2021,BCE-Mach III LLC,1013123,14201 Wireless Way St 300,35.6131551,-97.6385368,Oklahoma City,,OK,73134,ALTA MESA RESOURCES INC (100%),317189,W
2021,BCE-Mach III Midstream Holding LLC (Boosters - 360 Anadarko Basin GB,1013230,14201 Wireless Way St 300,35.614228,-97.579012,Oklahoma City,OKLAHOMA COUNTY,OK,73134,BCE-MACH III LLC (100%),66643,W
2021,BCE-Mach III Midstream Holdings LLC - Lincoln Gas Plant,1012401,,35.999,-97.8069,Dover,KINGFISHER COUNTY,OK,73734,ALTA MESA RESOURCES INC (100%),51566,"C,W"
2021,BEACON HEATING,1006384,541 MADISON STREET,42.33811,-83.04382,DETROIT,WAYNE COUNTY,MI,48226,DETROIT THERMAL LLC (100%),100300,C
2021,BEAR MOUNTAIN LIMITED,1006139,34759 LENCIONI AVE,35.44735,-119.08652,BAKERSFIELD,KERN COUNTY,CA,93308,BEAR MOUNTAIN LTD (100%),25147,D
2021,BEAUMONT POLYETHYLENE PLANT,1006416,11440 HWY 90 WEST,30.063707,-94.218396,BEAUMONT,JEFFERSON COUNTY,TX,77713,EXXON MOBIL CORP (100%),64521,C
2021,BECKVILLE GAS PROCESSING PLANT,1012062,329 COUNTY ROAD 257,32.235649,-94.486066,BECKVILLE,PANOLA COUNTY,TX,75631,MIDCOAST ENERGY LLC (100%),80891,"C,W"
2021,BEECH HOLLOW SANITARY LANDFILL *,1004815,28 AW LONG ROAD,39.12929,-82.465678,WELLSTON,JACKSON COUNTY,OH,45692,RUMPKE CONSOLIDATED COS INC (100%),326803,"C,HH"
2021,BEECHER LANDFILL,1003744,1055 W GOODENOW RD,41.384838,-87.637077,BEECHER,WILL COUNTY,IL,60401,WASTE MANAGEMENT INC (100%),3448,HH
2021,BELLEFIELD BOILER PLANT,1005525,,40.442121,-79.949221,PITTSBURGH,ALLEGHENY COUNTY,PA,15213,BELLEFIELD BOILER PLANT (100%),55806,C
2021,BENEDUM GAS PLANT,1002325,10501 HIGHWAY 1555,31.362088,-101.77962,MIDKIFF,UPTON COUNTY,TX,79755,WTG SOUTH PERMIAN MIDSTREAM LLC (100%),249657,"C,W"
2021,BENTELER Steel Tube Manufacturing Corp,1013375,#1 Benteler Dr,32.34033,-93.60773,Shreveport,CADDO PARISH,LA,71115,BENTELER NORTH AMERICA CORP (100%),28113,C
2021,BENTONITE PERFORMANCE MINERALS LLC LOVELL,1003718,789 HWY 14A,44.82434,-108.14365,LOVELL,BIG HORN COUNTY,WY,82431,HALLIBURTON CO (100%),39397,C
2021,BENTONITE PERFORMANCE MINERALS-COLONY,1003913,554 HWY 212 (ZIP PROVIDED IS NOT WY),44.68109,-103.8518,BELLE FOURCHE,BUTTE COUNTY,SD,57717,HALLIBURTON CO (100%),24326,C
2021,BERKELEY COUNTY LANDFILL,1003478,2277 Hwy 52,33.113872,-80.028486,MONCKS CORNER,BERKELEY COUNTY,SC,29461,BERKELEY COUNTY WATER & SANITATION AUTHORITY (100%),56125,HH
2021,BERNICE LAKE,1005268,55244 CHEVRON REFINERY ROAD,60.696944,-151.379166,NIKISKI,KENAI PENINSULA BOROUGH,AK,99635,HOMER ELECTRIC ASSOC INC (100%),2482,C
2021,BETA OCS PARCELS,1004613,,33.576,-118.1232,Offshore,,CA,0,AMPLIFY ENERGY CORP (100%),44129,"C,W"
2021,BF GOODRICH TIRE MANUFACTURING,1006093,18906 Old 24,41.136194,-84.905111,WOODBURN,ALLEN COUNTY,IN,46797,MICHELIN NORTH AMERICA INC (100%),30150,C
2021,BI-COUNTY SOLID WASTE MANAGEMENT SYSTEMS,1005281,3212 Dover Road,36.538,-87.54235,Woodlawn,MONTGOMERY COUNTY,TN,37191,MONTGOMERY COUNTY GOVERNMENT (100%),145348,HH
2021,BIG RIVER LANDFILL,1006223,52 LANDFILL ROAD,33.3955,-90.90665,LELAND,WASHINGTON COUNTY,MS,38756,REPUBLIC SERVICES INC (100%),149010,HH
2021,BIG RIVER RESOURCES GALVA LLC,1006787,1100 SE 2ND STREET,41.169691,-90.024473,GALVA,HENRY COUNTY,IL,61434,BIG RIVER RESOURCES LLC (100%),177209,C
2021,BIG RIVER RESOURCES WEST BURLINGTON LLC,1002443,15210 103RD ST,40.83081,-91.220681,WEST BURLINGTON,DES MOINES COUNTY,IA,52655,BIG RIVER RESOURCES LLC (100%),154479,C
2021,BIG RIVER UNITED ENERGY LLC,1005626,3294 VINE RD6,42.4872,-91.1633,DYERSVILLE,DELAWARE COUNTY,IA,52040,BIG RIVER RESOURCES LLC (50.5%); UNITED COOPERATIVE (34%); RUMBOLD & KUHN INC (15.5%),169762,C
2021,BIG RUN LANDFILL,1007094,1837 RIVER CITIES DR,38.37327,-82.75861,ASHLAND,BOYD COUNTY,KY,41102,BOYD COUNTY SANITARY LANDFILL INC (100%),350028,HH
2021,BIG SPRING REFINERY,1006961,200 REFINERY RD; INTERSECTION OF I-20 & REFINERY RD,32.269104,-101.417673,BIG SPRING,HOWARD COUNTY,TX,79720,DELEK US HOLDINGS INC (100%),710451,"C,MM,TT,Y"
2021,BIG WEST OIL LLC,1009068,333 WEST CENTER STREET,40.838386,-111.921443,NORTH SALT LAKE,DAVIS COUNTY,UT,84054,FJ MANAGEMENT INC (100%),265657,"C,MM,Y"
2021,BIGFOOT RUN LANDFILL,1004354,2420 E MASON MORROW RD,39.36463,-84.168816,MORROW,WARREN COUNTY,OH,45152,REPUBLIC SERVICES INC (100%),8514,HH
2021,BILLINGS CITY LANDFILL,1000477,5240 JELLISON ROAD 4 1/2 MI S.,45.722949,-108.543015,BILLINGS,YELLOWSTONE COUNTY,MT,59101,SOLID WASTE DIV CITY OF BILLINGS MONTANA (100%),132607,HH
2021,BIOGEN INC,1000383,225 Binney Street,42.36608,-71.08513,CAMBRIDGE,MIDDLESEX COUNTY,MA,2142,BIOGEN INC (100%),29388,C
2021,BIOKYOWA,1006002,5469 NASH ROAD,37.239722,-89.600278,CAPE GIRARDEAU,CAPE GIRARDEAU COUNTY,MO,63701,KYOWA HAKKO USA INC (100%),22418,C
2021,"BIRLA CARBON USA, Inc.",1005126,3500 SOUTH ROAD S,37.54355,-101.19905,ULYSSES,GRANT COUNTY,KS,67880,BIRLA CARBON USA INC (100%),118959,"C,X"
2021,BKK Corporation,1011449,2210 S. Azusa Ave.,34.036441,-117.902294,West Covina,LOS ANGELES COUNTY,CA,91792,BKK CORP (100%),293642,HH
2021,BKV Midstream - Cotton Cove,1004137,10055 Morris Dido Newark Rd,32.907723,-97.465856,Fort Worth,TARRANT COUNTY,TX,76179,EXXON MOBIL CORP (100%),38728,"C,PP,W"
2021,BKV Operating LLC,1009732,"1200 17th Street, Suite 2100",29.75788,-95.37013,Denver,,CO,80202,BKV OPERATING LLC (100%),84009,W
2021,BLACK HAWK COUNTY SANITARY LANDFILL,1000287,1509 EAST WASHBURN ROAD,42.41399,-92.32887,WATERLOO,BLACK HAWK COUNTY,IA,50701,COUNTY OF BLACK HAWK (100%),167365,HH
